CODVIA,NOMVIA,NUMERO,NOM_ACTIVITAT,TIPUS,CATEGORIA,LAT,LNG,WEBSITE,TELEFON,HORARI,FONT,BARRI,DISTRICTE,ADRECA,CCAE
,c. del Sol,102,3F CONSULTORES,activitat_econòmica,"Activitats de comptabilitat, tenidoria de llibres, auditoria i assessoria fiscal",41.5433,2.10952,,,,sabadellempresa.cat,EL CENTRE,1,"c. del Sol, 102 Bxs","Activitats de comptabilitat, tenidoria de llibres, auditoria i assessoria fiscal"
,c. de Garcilaso,111,5 PASSES,activitat_econòmica,Altres activitats d'educació ncaa,41.5491,2.10139,,,,sabadellempresa.cat,EL CENTRE,1,"c. de Garcilaso, 111 Bxs 3a",Altres activitats d'educació ncaa
,pg. de la Plaça Major,51,A C I ASSOCIATS 93,activitat_econòmica,Activitats d'agents i corredors d'assegurances,41.5479,2.10845,,,,sabadellempresa.cat,EL CENTRE,1,"pg. de la Plaça Major, 51 1r",Activitats d'agents i corredors d'assegurances
,c. de Calderón,90,A COLORIS,activitat_econòmica,Educació relacionada amb la cultura,41.5473,2.10294,,,,sabadellempresa.cat,EL CENTRE,1,"c. de Calderón, 90 Bxs",Educació relacionada amb la cultura
,c. de Capmany,22,A HIGUERAS DECORACIÓ,activitat_econòmica,"Comerç al detall de catifes, moquetes i revestiments de parets i terres en estab",41.5492,2.10719,,,,sabadellempresa.cat,EL CENTRE,1,"c. de Capmany, 22 Bxs","Comerç al detall de catifes, moquetes i revestiments de parets i terres en establiments especialitzats"
,c. del Marquès de Comillas,31,AAF INTERNACIONAL,activitat_econòmica,Comerç a l'engròs d'altres tipus de maquinària i equips,41.5407,2.11547,,,,sabadellempresa.cat,EL CENTRE,1,"c. del Marquès de Comillas, 31 Bxs 1a",Comerç a l'engròs d'altres tipus de maquinària i equips
,c. del Convent,21,AB ARMENTERAS BLANCO ADVOCATS,activitat_econòmica,Activitats jurídiques,41.5504,2.1087,,,,sabadellempresa.cat,EL CENTRE,1,"c. del Convent, 21 Bxs 1a",Activitats jurídiques
,c. de Sallarès i Pla,7,ABACUS,activitat_econòmica,Comerç a l'engròs d'altres articles d'ús domèstic,41.5459,2.1121,,,,sabadellempresa.cat,EL CENTRE,1,"c. de Sallarès i Pla, 7 Bxs",Comerç a l'engròs d'altres articles d'ús domèstic
,c. de l' Estrella,128,ABORA,activitat_econòmica,Activitats de medicina especialitzada,41.5427,2.10732,,,,sabadellempresa.cat,EL CENTRE,1,"c. de l' Estrella, 128 B 1r 2a",Activitats de medicina especialitzada
,rda. de Ponent,43,ABRAHAM MARTINEZ,activitat_econòmica,Confecció d'altres peces de vestir exteriors,41.5476,2.10298,,,,sabadellempresa.cat,HOSTAFRANCS,1,"rda. de Ponent, 43 Bxs 2a",Confecció d'altres peces de vestir exteriors
,c. d' Àngel Guimerà,2,ACCIIS CONSULTING GROUP,activitat_econòmica,Activitats jurídiques,41.5457,2.09942,,,,sabadellempresa.cat,EL CENTRE,1,"c. d' Àngel Guimerà, 2 1r 1a",Activitats jurídiques
,ctra. de Barcelona,189,ACTIVA MUTUA 2008,activitat_econòmica,"Assegurances, excepte assegurances de vida",41.5449,2.1095,,,,sabadellempresa.cat,EL CENTRE,1,"ctra. de Barcelona, 189 Bxs 2a","Assegurances, excepte assegurances de vida"
,c. de les Tres Creus,82,ACTIVITY,activitat_econòmica,Perruqueria i altres tractaments de bellesa,41.5395,2.10697,,,,sabadellempresa.cat,EL CENTRE,1,"c. de les Tres Creus, 82 Bxs",Perruqueria i altres tractaments de bellesa
,pg. de Manresa,1,ACTORIS TALLER D'ADVOCATS,activitat_econòmica,Activitats jurídiques,41.5461,2.11217,,,,sabadellempresa.cat,EL CENTRE,1,"pg. de Manresa, 1 3r 1a",Activitats jurídiques
,c. de Gràcia,51,ADAI,activitat_econòmica,"Comerç al detall de mobles, aparells d'il·luminació i d'altres articles d'ús dom",41.5482,2.10842,,,,sabadellempresa.cat,EL CENTRE,1,"c. de Gràcia, 51 Bxs 7a","Comerç al detall de mobles, aparells d'il·luminació i d'altres articles d'ús domèstic en establiments especialitzats"
,ctra. de Terrassa,2,ADAN TATTOO,activitat_econòmica,Altres activitats de serveis personals ncaa,41.5477,2.10702,,,,sabadellempresa.cat,EL CENTRE,1,"ctra. de Terrassa, 2 Bxs 2a",Altres activitats de serveis personals ncaa
,Rambla,154,ADELA PALOP,activitat_econòmica,Comerç al detall de peces de vestir en establiments especialitzats,41.546,2.10605,,,,sabadellempresa.cat,EL CENTRE,1,"Rambla, 154 Bxs",Comerç al detall de peces de vestir en establiments especialitzats
,via de Massagué,34,ADETE,activitat_econòmica,Comerç al detall de peces de vestir en establiments especialitzats,41.5436,2.10295,,,,sabadellempresa.cat,EL CENTRE,1,"via de Massagué, 34 Bxs Dta",Comerç al detall de peces de vestir en establiments especialitzats
,ctra. de Terrassa,48,ADEUR SEGURETAT,activitat_econòmica,Comerç al detall d'electrodomèstics en establiments especialitzats,41.5419,2.11116,,,,sabadellempresa.cat,EL CENTRE,1,"ctra. de Terrassa, 48 Bxs 2a",Comerç al detall d'electrodomèstics en establiments especialitzats
,via de Massagué,43,ADMINISTRACIO NUM. 13,activitat_econòmica,Comerç al detall de productes de tabac en establiments especialitzats,41.5503,2.10759,,,,sabadellempresa.cat,EL CENTRE,1,"via de Massagué, 43 Bxs",Comerç al detall de productes de tabac en establiments especialitzats
,c. de l' Advocat Cirera,24,ADUHO,activitat_econòmica,Perruqueria i altres tractaments de bellesa,41.5441,2.10129,,,,sabadellempresa.cat,EL CENTRE,1,"c. de l' Advocat Cirera, 24 Bxs",Perruqueria i altres tractaments de bellesa
,c. de Joan Plans,27,ADVENTIA,activitat_econòmica,Construcció d'edificis residencials,41.5505,2.10729,,,,sabadellempresa.cat,EL CENTRE,1,"c. de Joan Plans, 27 Bxs 4a",Construcció d'edificis residencials
,Rambla,139,ADVOCADA / MARCH & ASSOCIATS ASSESSORS,activitat_econòmica,Activitats jurídiques,41.5459,2.10736,,,,sabadellempresa.cat,EL CENTRE,1,"Rambla, 139 2n",Activitats jurídiques
,c. de la República,6,ADVOCATS CAMPS,activitat_econòmica,Activitats jurídiques,41.5451,2.10033,,,,sabadellempresa.cat,EL CENTRE,1,"c. de la República, 6 Bxs 1a",Activitats jurídiques
,rda. de Zamenhof,149,AEGON,activitat_econòmica,Activitats d'agents i corredors d'assegurances,41.5423,2.11122,,,,sabadellempresa.cat,EL CENTRE,1,"rda. de Zamenhof, 149 Bxs 2a",Activitats d'agents i corredors d'assegurances
,Rambla,151,AG 25,activitat_econòmica,Comerç al detall de peces de vestir en establiments especialitzats,41.5425,2.11089,,,,sabadellempresa.cat,EL CENTRE,1,"Rambla, 151 Bxs 2a",Comerç al detall de peces de vestir en establiments especialitzats
,c. de Montserrat,22,AGPER ASSESSORIA D'EMPRESES,activitat_econòmica,Activitats jurídiques,41.5456,2.11011,,,,sabadellempresa.cat,EL CENTRE,1,"c. de Montserrat, 22 Bxs",Activitats jurídiques
,Rambla,143,AGROPATRIMONIAL,activitat_econòmica,Promoció immobiliària,41.5421,2.11134,,,,sabadellempresa.cat,EL CENTRE,1,"Rambla, 143 1r 2a",Promoció immobiliària
,c. de Gràcia,12,AGUSTI PERRUQUERS,activitat_econòmica,Perruqueria i altres tractaments de bellesa,41.5431,2.10949,,,,sabadellempresa.cat,EL CENTRE,1,"c. de Gràcia, 12 1r",Perruqueria i altres tractaments de bellesa
,c. de Sant Quirze,11,AIGUA DE MAR,activitat_econòmica,Comerç al detall de peces de vestir en establiments especialitzats,41.5431,2.10949,,,,sabadellempresa.cat,EL CENTRE,1,"c. de Sant Quirze, 11 Bxs",Comerç al detall de peces de vestir en establiments especialitzats
,c. de Joaquín Costa,50,AINA CAR,activitat_econòmica,Lloguer d'automòbils i vehicles de motor lleugers,41.5422,2.11127,,,,sabadellempresa.cat,HOSTAFRANCS,1,"c. de Joaquín Costa, 50 Bxs",Lloguer d'automòbils i vehicles de motor lleugers
,c. d' Alfons Sala,149,AL PAN PAN,activitat_econòmica,"Comerç al detall de pa i productes de fleca, confiteria i pastisseria en establi",41.5474,2.1075,,,,sabadellempresa.cat,COVADONGA,1,"c. d' Alfons Sala, 149 Bxs 2a","Comerç al detall de pa i productes de fleca, confiteria i pastisseria en establiments especialitzats"
,c. de Sant Llorenç,41,ALARCON GRUPO,activitat_econòmica,Activitats de neteja ncaa,41.5466,2.10735,,,,sabadellempresa.cat,EL CENTRE,1,"c. de Sant Llorenç, 41 2n 2a",Activitats de neteja ncaa
,c. de les Paus,32,ALAYUL,activitat_econòmica,Perruqueria i altres tractaments de bellesa,41.5477,2.11191,,,,sabadellempresa.cat,EL CENTRE,1,"c. de les Paus, 32 Bxs",Perruqueria i altres tractaments de bellesa
,c. de Zurbano,7,ALBIO TRASPORTS BCN SL,activitat_econòmica,"Transport de mercaderies per carretera, excepte servei de mudances",41.5466,2.09669,,,,sabadellempresa.cat,EL CENTRE,1,"c. de Zurbano, 7 Ent 4a","Transport de mercaderies per carretera, excepte servei de mudances"
,Rambla,84,ALE-HOP,activitat_econòmica,"Comerç al detall de ferreteria, pintures i vidre en establiments especialitzats",41.5466,2.11644,,,,sabadellempresa.cat,EL CENTRE,1,"Rambla, 84 Bxs","Comerç al detall de ferreteria, pintures i vidre en establiments especialitzats"
,c. de Montserrat,5,ALONSO CENTRE MEDIC DENTAL,activitat_econòmica,Activitats odontològiques,41.5474,2.11198,,,,sabadellempresa.cat,EL CENTRE,1,"c. de Montserrat, 5 B Bxs",Activitats odontològiques
,c. del Vallès,65,ALPEZ COLOCACIONES SL,activitat_econòmica,Revestiments de terres i parets,41.5502,2.11099,,,,sabadellempresa.cat,EL CENTRE,1,"c. del Vallès, 65 Bxs 5a",Revestiments de terres i parets
,Rambla,182,AMETLLER ORIGEN,activitat_econòmica,"Comerç al detall, amb predomini de productes alimentaris, begudes i tabac en est",41.5408,2.1109,,,,sabadellempresa.cat,EL CENTRE,1,"Rambla, 182 Bxs","Comerç al detall, amb predomini de productes alimentaris, begudes i tabac en establiments no especialitzats"
,c. de Bonavista,67,AMORTIGUADORES BONAVENTURA,activitat_econòmica,Manteniment i reparació de vehicles de motor,41.5439,2.11019,,,,sabadellempresa.cat,COVADONGA,1,"c. de Bonavista, 67 Bxs",Manteniment i reparació de vehicles de motor
,Rambla,107,AMPLIFON,activitat_econòmica,Comerç al detall d'articles mèdics i ortopèdics en establiments especialitzats,41.5432,2.11006,,,,sabadellempresa.cat,EL CENTRE,1,"Rambla, 107 Bxs",Comerç al detall d'articles mèdics i ortopèdics en establiments especialitzats
,c. de Joaquín Costa,94,AN RE NO,activitat_econòmica,Altres tipus de comerç al detall en establiments no especialitzats,41.5478,2.10038,,,,sabadellempresa.cat,HOSTAFRANCS,1,"c. de Joaquín Costa, 94 Bxs",Altres tipus de comerç al detall en establiments no especialitzats
,pg. de la Plaça Major,24,ANDANA CAFE BAR,activitat_econòmica,Establiments de begudes,41.5488,2.10747,,,,sabadellempresa.cat,EL CENTRE,1,"pg. de la Plaça Major, 24 Bxs",Establiments de begudes
,c. de les Valls,41,ANDRES ABOGADOS,activitat_econòmica,Activitats jurídiques,41.5407,2.11178,,,,sabadellempresa.cat,EL CENTRE,1,"c. de les Valls, 41 2n 1a",Activitats jurídiques
,pl. del Mercat,1,ANDREU XARCUTERIA I DEGUSTACIO P. 235-236 / 278-282,activitat_econòmica,Comerç al detall de carn i productes carnis en establiments especialitzats,41.5475,2.11795,,,,sabadellempresa.cat,EL CENTRE,1,"pl. del Mercat, 1 Bxs",Comerç al detall de carn i productes carnis en establiments especialitzats
,c. de Sant Cugat,16,ANGELS MOYA ESTILISTES,activitat_econòmica,Perruqueria i altres tractaments de bellesa,41.5434,2.11071,,,,sabadellempresa.cat,EL CENTRE,1,"c. de Sant Cugat, 16 Bxs 2a",Perruqueria i altres tractaments de bellesa
,c. de Gràcia,48,ANNA BUILS PERRUQUERS,activitat_econòmica,Perruqueria i altres tractaments de bellesa,41.5478,2.09612,,,,sabadellempresa.cat,EL CENTRE,1,"c. de Gràcia, 48E Bxs",Perruqueria i altres tractaments de bellesa
,c. de les Tres Creus,111,ANNA FERRER,activitat_econòmica,Perruqueria i altres tractaments de bellesa,41.5473,2.10898,,,,sabadellempresa.cat,EL CENTRE,1,"c. de les Tres Creus, 111 Bxs 1a",Perruqueria i altres tractaments de bellesa
,c. de Calderón,5,ANNA Q,activitat_econòmica,Comerç al detall de peces de vestir en establiments especialitzats,41.5482,2.10716,,,,sabadellempresa.cat,EL CENTRE,1,"c. de Calderón, 5 Bxs Esq",Comerç al detall de peces de vestir en establiments especialitzats
,c. de Sant Baldomer,64,APARCAMENT ESCLAT,activitat_econòmica,Activitats afins al transport terrestre,41.5473,2.1055,,,,sabadellempresa.cat,HOSTAFRANCS,1,"c. de Sant Baldomer, 64 Bxs",Activitats afins al transport terrestre
,c. de Gurrea,4,APARCAMENT MUR,activitat_econòmica,Activitats afins al transport terrestre,41.5458,2.10536,,,,sabadellempresa.cat,EL CENTRE,1,"c. de Gurrea, 4 S01 74a",Activitats afins al transport terrestre
,c. de les Paus,79,APLICACIONS C M ELECTRONICA SL,activitat_econòmica,Serveis tècnics d'enginyeria i altres activitats relacionades amb l'assessoramen,41.5477,2.10702,,,,sabadellempresa.cat,EL CENTRE,1,"c. de les Paus, 79 Bxs 1a",Serveis tècnics d'enginyeria i altres activitats relacionades amb l'assessorament tècnic
,c. de Garcilaso,46,AQHUAPC,activitat_econòmica,Activitats de programació informàtica,41.5485,2.10653,,,,sabadellempresa.cat,EL CENTRE,1,"c. de Garcilaso, 46 Bxs",Activitats de programació informàtica
,rda. de Ponent,143,ARAUTO SABADELL,activitat_econòmica,Manteniment i reparació de vehicles de motor,41.5462,2.11376,,,,sabadellempresa.cat,HOSTAFRANCS,1,"rda. de Ponent, 143 Bxs",Manteniment i reparació de vehicles de motor
,c. de l' Illa,41,ARKI TECNIX CREATIUS,activitat_econòmica,Serveis tècnics d'arquitectura,41.5481,2.10651,,,,sabadellempresa.cat,EL CENTRE,1,"c. de l' Illa, 41 Bxs",Serveis tècnics d'arquitectura
,via de Massagué,75,AROMES DE SABADELL,activitat_econòmica,Establiments de begudes,41.5427,2.11139,,,,sabadellempresa.cat,EL CENTRE,1,"via de Massagué, 75 Bxs",Establiments de begudes
,rda. de Ponent,92,ARQUINTERIOR,activitat_econòmica,"Comerç al detall de mobles, aparells d'il·luminació i d'altres articles d'ús dom",41.551,2.11211,,,,sabadellempresa.cat,EL CENTRE,1,"rda. de Ponent, 92 Bxs 4a","Comerç al detall de mobles, aparells d'il·luminació i d'altres articles d'ús domèstic en establiments especialitzats"
,c. del Doctor Puig,34,ARQUITECTURA I PAISSATGISME,activitat_econòmica,Serveis tècnics d'arquitectura,41.5503,2.10497,,,,sabadellempresa.cat,EL CENTRE,1,"c. del Doctor Puig, 34 2n 2a",Serveis tècnics d'arquitectura
,Rambla,178,ARREGLOS ROBA I PELL,activitat_econòmica,Reparació d'efectes personals i articles d'ús domèstic ncaa,41.5483,2.09862,,,,sabadellempresa.cat,EL CENTRE,1,"Rambla, 178 Bxs 5a",Reparació d'efectes personals i articles d'ús domèstic ncaa
,c. de Torras i Bages,25,ARRENDAMENTS L C SCP,activitat_econòmica,Lloguer de béns immobiliaris per compte propi,41.5454,2.1085,,,,sabadellempresa.cat,EL CENTRE,1,"c. de Torras i Bages, 25 1 Bxs 1a",Lloguer de béns immobiliaris per compte propi
,c. de les Tres Creus,105,ART BO,activitat_econòmica,"Comerç al detall de pa i productes de fleca, confiteria i pastisseria en establi",41.5487,2.11306,,,,sabadellempresa.cat,EL CENTRE,1,"c. de les Tres Creus, 105 Bxs 2a","Comerç al detall de pa i productes de fleca, confiteria i pastisseria en establiments especialitzats"
,c. de Capmany,96,ARTQUADERNA,activitat_econòmica,Enquadernació i activitats dels serveis que s'hi relacionen,41.5487,2.11306,,,,sabadellempresa.cat,EL CENTRE,1,"c. de Capmany, 96 Bxs",Enquadernació i activitats dels serveis que s'hi relacionen
,c. de Sant Llorenç,80,ASINCO,activitat_econòmica,"Activitats de comptabilitat, tenidoria de llibres, auditoria i assessoria fiscal",41.5512,2.10677,,,,sabadellempresa.cat,EL CENTRE,1,"c. de Sant Llorenç, 80 Bxs","Activitats de comptabilitat, tenidoria de llibres, auditoria i assessoria fiscal"
,c. de l' Horta Novella,93,ASSEGURANCES DAUDER,activitat_econòmica,Activitats d'agents i corredors d'assegurances,41.5473,2.0993,,,,sabadellempresa.cat,EL CENTRE,1,"c. de l' Horta Novella, 93 Bxs",Activitats d'agents i corredors d'assegurances
,c. del Convent,50,ASSESSORIA,activitat_econòmica,"Activitats de comptabilitat, tenidoria de llibres, auditoria i assessoria fiscal",41.5493,2.10911,,,,sabadellempresa.cat,EL CENTRE,1,"c. del Convent, 50 Bxs 1a","Activitats de comptabilitat, tenidoria de llibres, auditoria i assessoria fiscal"
,c. de l' Estació,56,ASSESSORIA D EMPRESES M ALVAREZ SL,activitat_econòmica,"Activitats de comptabilitat, tenidoria de llibres, auditoria i assessoria fiscal",41.5409,2.11164,,,,sabadellempresa.cat,EL CENTRE,1,"c. de l' Estació, 56 1r 2a","Activitats de comptabilitat, tenidoria de llibres, auditoria i assessoria fiscal"
,c. de Felip Benessat,32,ASSESSORIA JURIDICA,activitat_econòmica,Activitats jurídiques,41.546,2.10477,,,,sabadellempresa.cat,COVADONGA,1,"c. de Felip Benessat, 32 Bxs 1a",Activitats jurídiques
,c. de Sant Cristòfol,6,ASSESSORIA MARTI,activitat_econòmica,Serveis administratius combinats,41.5462,2.11341,,,,sabadellempresa.cat,EL CENTRE,1,"c. de Sant Cristòfol, 6 Bxs",Serveis administratius combinats
,pg. de la Plaça Major,21,ASSESSORIA MONFER,activitat_econòmica,"Activitats de comptabilitat, tenidoria de llibres, auditoria i assessoria fiscal",41.5466,2.10053,,,,sabadellempresa.cat,EL CENTRE,1,"pg. de la Plaça Major, 21 1r 1a","Activitats de comptabilitat, tenidoria de llibres, auditoria i assessoria fiscal"
,c. de Gràcia,101,ASSISTENCIA SANITARIA,activitat_econòmica,"Assegurances, excepte assegurances de vida",41.5512,2.10619,,,,sabadellempresa.cat,EL CENTRE,1,"c. de Gràcia, 101 Bxs","Assegurances, excepte assegurances de vida"
,ctra. de Terrassa,76,ASTON & AUDREY INVERSIONS SL,activitat_econòmica,Promoció immobiliària,41.5467,2.11192,,,,sabadellempresa.cat,EL CENTRE,1,"ctra. de Terrassa, 76 Bxs 2a",Promoció immobiliària
,rda. de Ponent,172,ATELIER DESCANS,activitat_econòmica,"Comerç al detall de mobles, aparells d'il·luminació i d'altres articles d'ús dom",41.5436,2.10425,,,,sabadellempresa.cat,EL CENTRE,1,"rda. de Ponent, 172 Bxs","Comerç al detall de mobles, aparells d'il·luminació i d'altres articles d'ús domèstic en establiments especialitzats"
,c. d' Àngel Guimerà,1,ATENCIO LEGAL ADVOCATS MEDIADORS,activitat_econòmica,Activitats jurídiques,41.5509,2.10854,,,,sabadellempresa.cat,EL CENTRE,1,"c. d' Àngel Guimerà, 1 Ent",Activitats jurídiques
,c. de Gràcia,185,ATLANTIDA VIATGES,activitat_econòmica,Activitats de les agències de viatges,41.5472,2.11503,,,,sabadellempresa.cat,EL CENTRE,1,"c. de Gràcia, 185 Bxs",Activitats de les agències de viatges
,Rambla,75,ATLANTIS,activitat_econòmica,Activitats d'agents i corredors d'assegurances,41.5528,2.11394,,,,sabadellempresa.cat,EL CENTRE,1,"Rambla, 75 Bxs",Activitats d'agents i corredors d'assegurances
,c. de Joan Plans,38,ATTICA,activitat_econòmica,Establiments de begudes,41.5468,2.11083,,,,sabadellempresa.cat,EL CENTRE,1,"c. de Joan Plans, 38 Bxs",Establiments de begudes
,c. de Portugal,61,AUREP DOS SL,activitat_econòmica,Reparació de maquinària,41.5473,2.10851,,,,sabadellempresa.cat,EL CENTRE,1,"c. de Portugal, 61 Bxs",Reparació de maquinària
,c. de Covadonga,491,AUTO TALLER COVADONGA,activitat_econòmica,Manteniment i reparació de vehicles de motor,41.5463,2.10588,,,,sabadellempresa.cat,COVADONGA,1,"c. de Covadonga, 491 Bxs",Manteniment i reparació de vehicles de motor
,c. de l' Estació,67,AUTOBUSOS INTERURBAN,activitat_econòmica,Activitats afins al transport terrestre,41.5488,2.10612,,,,sabadellempresa.cat,EL CENTRE,1,"c. de l' Estació, 67 Bxs",Activitats afins al transport terrestre
,c. de les Valls,41,AUTODANI 301 SL,activitat_econòmica,Venda d'automòbils i vehicles de motor lleuger,41.5443,2.10052,,,,sabadellempresa.cat,EL CENTRE,1,"c. de les Valls, 41 3r 3a",Venda d'automòbils i vehicles de motor lleuger
,c. de Prat de la Riba,57,AUTOESCOLA L'ASFALT,activitat_econòmica,Activitats de les escoles de conducció i pilotatge,41.5492,2.09871,,,,sabadellempresa.cat,HOSTAFRANCS,1,"c. de Prat de la Riba, 57 Bxs 9a",Activitats de les escoles de conducció i pilotatge
,av. de Rafael Casanova,22,AUTOSPA,activitat_econòmica,Manteniment i reparació de vehicles de motor,41.5448,2.10956,,,,sabadellempresa.cat,HOSTAFRANCS,1,"av. de Rafael Casanova, 22 Bxs",Manteniment i reparació de vehicles de motor
,c. de Joaquín Costa,65,AUTOTALLER SOLA,activitat_econòmica,Manteniment i reparació de vehicles de motor,41.5508,2.10428,,,,sabadellempresa.cat,HOSTAFRANCS,1,"c. de Joaquín Costa, 65 Bxs",Manteniment i reparació de vehicles de motor
,c. de l' Estrella,110,AVAN,activitat_econòmica,Activitats de medicina especialitzada,41.5442,2.11035,,,,sabadellempresa.cat,EL CENTRE,1,"c. de l' Estrella, 110 Bxs",Activitats de medicina especialitzada
,pl. del Mercat,1,AVIRAM FERMI P. 138-139 / 206-207,activitat_econòmica,Comerç al detall de carn i productes carnis en establiments especialitzats,41.5453,2.10045,,,,sabadellempresa.cat,EL CENTRE,1,"pl. del Mercat, 1 Bxs",Comerç al detall de carn i productes carnis en establiments especialitzats
,c. de Lacy,21,B. G. ADVOCATS ASSOCIATS,activitat_econòmica,Activitats jurídiques,41.542,2.10587,,,,sabadellempresa.cat,EL CENTRE,1,"c. de Lacy, 21 Bxs 1a",Activitats jurídiques
,c. de Marià Fortuny,13,BALBOA,activitat_econòmica,Establiments de begudes,41.5442,2.10109,,,,sabadellempresa.cat,EL CENTRE,1,"c. de Marià Fortuny, 13 Bxs",Establiments de begudes
,pl. de Catalunya,1,BANC SABADELL,activitat_econòmica,Serveis administratius combinats,41.5418,2.1196,,,,sabadellempresa.cat,EL CENTRE,1,"pl. de Catalunya, 1 Bxs",Serveis administratius combinats
,pl. de Catalunya,1,BANC SABADELL,activitat_econòmica,Agències de publicitat,41.5482,2.10716,,,,sabadellempresa.cat,EL CENTRE,1,"pl. de Catalunya, 1 6è",Agències de publicitat
,pl. del Mercat,1,BANC SABADELL - MERCAT CENTRAL,activitat_econòmica,Altres tipus de mediació monetària,41.5504,2.09566,,,,sabadellempresa.cat,EL CENTRE,1,"pl. del Mercat, 1 Bxs",Altres tipus de mediació monetària
,c. de Sant Josep,2,BAR ART ENEU,activitat_econòmica,Establiments de begudes,41.5468,2.09468,,,,sabadellempresa.cat,EL CENTRE,1,"c. de Sant Josep, 2 Bxs",Establiments de begudes
,c. de Sant Antoni Maria Claret,17,BAR CAFETERIA,activitat_econòmica,Establiments de begudes,41.547,2.09631,,,,sabadellempresa.cat,EL CENTRE,1,"c. de Sant Antoni Maria Claret, 17 Bxs 1a",Establiments de begudes
,c. de Sant Pau,33,BAR COMERCIAL 2,activitat_econòmica,Establiments de begudes,41.547,2.10327,,,,sabadellempresa.cat,EL CENTRE,1,"c. de Sant Pau, 33 Bxs",Establiments de begudes
,c. de la Indústria,2,BAR INDUSTRIA,activitat_econòmica,Establiments de begudes,41.5473,2.1055,,,,sabadellempresa.cat,EL CENTRE,1,"c. de la Indústria, 2 Bxs DR",Establiments de begudes
,c. d' Alfons Sala,147,BAR PISCIS,activitat_econòmica,Establiments de begudes,41.5448,2.10975,,,,sabadellempresa.cat,COVADONGA,1,"c. d' Alfons Sala, 147 Bxs 2a",Establiments de begudes
,c. d' Alfons Sala,149,BAR PITA,activitat_econòmica,Establiments de begudes,41.5442,2.11099,,,,sabadellempresa.cat,COVADONGA,1,"c. d' Alfons Sala, 149 Bxs 3a",Establiments de begudes
,c. de les Tres Creus,119,BAR RESTAURANT TRES CREUS,activitat_econòmica,Restaurants i establiments de menjars,41.5486,2.10882,,,,sabadellempresa.cat,EL CENTRE,1,"c. de les Tres Creus, 119 Bxs 5a",Restaurants i establiments de menjars
,c. de Vilarrúbias,48,BAR RESTAURANT VILARRUBIAS,activitat_econòmica,Restaurants i establiments de menjars,41.5497,2.09875,,,,sabadellempresa.cat,EL CENTRE,1,"c. de Vilarrúbias, 48 Bxs",Restaurants i establiments de menjars
,c. de Ferran Casablancas,50,BARNA FLUID,activitat_econòmica,Comerç a l'engròs no especialitzat,41.5497,2.09875,,,,sabadellempresa.cat,EL CENTRE,1,"c. de Ferran Casablancas, 50 Bxs",Comerç a l'engròs no especialitzat
,c. de la República,50,BASAR PERFECTE DE QIU,activitat_econòmica,Altres tipus de comerç al detall en establiments no especialitzats,41.5497,2.09875,,,,sabadellempresa.cat,EL CENTRE,1,"c. de la República, 50 Bxs",Altres tipus de comerç al detall en establiments no especialitzats
,Rambla,120,BAZAR EL REGALO,activitat_econòmica,Comerç al detall d'equips d'àudio i vídeo en establiments especialitzats,41.5473,2.1055,,,,sabadellempresa.cat,EL CENTRE,1,"Rambla, 120 Bxs 2a",Comerç al detall d'equips d'àudio i vídeo en establiments especialitzats
,c. de Llonch,9,BCN PROJECTA ASSOCIATS SL,activitat_econòmica,Activitats de programació informàtica,41.5476,2.10997,,,,sabadellempresa.cat,EL CENTRE,1,"c. de Llonch, 9 1r 2a",Activitats de programació informàtica
,c. d' Arimon,2,BDP STUDIO SL,activitat_econòmica,Serveis tècnics d'enginyeria i altres activitats relacionades amb l'assessoramen,41.5466,2.10965,,,,sabadellempresa.cat,EL CENTRE,1,"c. d' Arimon, 2D 5è 1a",Serveis tècnics d'enginyeria i altres activitats relacionades amb l'assessorament tècnic
,rda. de Ponent,59,BED'S,activitat_econòmica,"Comerç al detall de mobles, aparells d'il·luminació i d'altres articles d'ús dom",41.547,2.11625,,,,sabadellempresa.cat,HOSTAFRANCS,1,"rda. de Ponent, 59 Bxs C","Comerç al detall de mobles, aparells d'il·luminació i d'altres articles d'ús domèstic en establiments especialitzats"
,c. de Calderón,62,BELEN ESCUDE ESTILISTES,activitat_econòmica,Perruqueria i altres tractaments de bellesa,41.5449,2.10816,,,,sabadellempresa.cat,EL CENTRE,1,"c. de Calderón, 62 Bxs",Perruqueria i altres tractaments de bellesa
,c. de Colom,48,BELLVER CONSULTA DE PODOLOGIA,activitat_econòmica,Altres activitats sanitàries,41.547,2.11007,,,,sabadellempresa.cat,EL CENTRE,1,"c. de Colom, 48 Bxs 5a",Altres activitats sanitàries
,c. de Clavé,16,BETATEC,activitat_econòmica,Serveis tècnics d'enginyeria i altres activitats relacionades amb l'assessoramen,41.5468,2.11634,,,,sabadellempresa.cat,EL CENTRE,1,"c. de Clavé, 16 2n",Serveis tècnics d'enginyeria i altres activitats relacionades amb l'assessorament tècnic
,pg. de la Plaça Major,38,BETHS HAIR,activitat_econòmica,Comerç al detall de productes cosmètics i higiènics en establiments especialitza,41.5466,2.11644,,,,sabadellempresa.cat,EL CENTRE,1,"pg. de la Plaça Major, 38 Bxs 1a",Comerç al detall de productes cosmètics i higiènics en establiments especialitzats
,c. de Montserrat,180,BICICLETES ESCAPA,activitat_econòmica,Comerç al detall d'altres tipus d'articles nous en establiments especialitzats,41.5463,2.11405,,,,sabadellempresa.cat,EL CENTRE,1,"c. de Montserrat, 180 Bxs",Comerç al detall d'altres tipus d'articles nous en establiments especialitzats
,Rambla,28,BIJOU BRIGITTE,activitat_econòmica,Comerç al detall d'altres tipus d'articles nous en establiments especialitzats,41.5527,2.10905,,,,sabadellempresa.cat,EL CENTRE,1,"Rambla, 28 Bxs",Comerç al detall d'altres tipus d'articles nous en establiments especialitzats
,c. de les Tres Creus,236,BINAEX,activitat_econòmica,Altres activitats d'educació ncaa,41.5434,2.1064,,,,sabadellempresa.cat,COVADONGA,1,"c. de les Tres Creus, 236 Bxs",Altres activitats d'educació ncaa
,c. de la Salut,47,BINSA & BITSIS,activitat_econòmica,Activitats de programació informàtica,41.546,2.11145,,,,sabadellempresa.cat,EL CENTRE,1,"c. de la Salut, 47 Bxs",Activitats de programació informàtica
,c. de Torras i Bages,11,BIOPOMPAS,activitat_econòmica,Comerç al detall de productes cosmètics i higiènics en establiments especialitza,41.5484,2.10177,,,,sabadellempresa.cat,EL CENTRE,1,"c. de Torras i Bages, 11 Bxs 1a",Comerç al detall de productes cosmètics i higiènics en establiments especialitzats
,c. de les Tres Creus,236,BLACK MILK,activitat_econòmica,"Altres activitats professionals, científiques i tècniques ncaa",41.543,2.11064,,,,sabadellempresa.cat,COVADONGA,1,"c. de les Tres Creus, 236 Bxs","Altres activitats professionals, científiques i tècniques ncaa"
,c. del Xaloc,6,BLANCH NORMALITZATS,activitat_econòmica,"Comerç a l'engròs de ferreteria, lampisteria i calefacció",41.539,2.10882,,,,sabadellempresa.cat,COVADONGA,1,"c. del Xaloc, 6 Bxs","Comerç a l'engròs de ferreteria, lampisteria i calefacció"
,c. de Bosch i Cardellach,36,BLASCO RAMONEDA ADVOCATS,activitat_econòmica,Activitats jurídiques,41.5496,2.11407,,,,sabadellempresa.cat,EL CENTRE,1,"c. de Bosch i Cardellach, 36 2n 1a",Activitats jurídiques
,c. de Turull,99,BLAVETI GLOBAL GROUP SL,activitat_econòmica,Confecció d'altres peces de vestir exteriors,41.5464,2.09923,,,,sabadellempresa.cat,EL CENTRE,1,"c. de Turull, 99 Bxs",Confecció d'altres peces de vestir exteriors
,rda. de Ponent,27,BMB HOSPITALARIA SL,activitat_econòmica,Comerç a l'engròs d'altres tipus de maquinària i equips,41.5475,2.10387,,,,sabadellempresa.cat,HOSTAFRANCS,1,"rda. de Ponent, 27 Bxs A",Comerç a l'engròs d'altres tipus de maquinària i equips
,c. de Gràcia,34,BOHEME ARTESANS DEL PA,activitat_econòmica,Establiments de begudes,41.5462,2.10342,,,,sabadellempresa.cat,EL CENTRE,1,"c. de Gràcia, 34 Bxs",Establiments de begudes
,rda. de Zamenhof,107,BONAREA,activitat_econòmica,"Comerç al detall, amb predomini de productes alimentaris, begudes i tabac en est",41.5449,2.10172,,,,sabadellempresa.cat,EL CENTRE,1,"rda. de Zamenhof, 107 Bxs 1a","Comerç al detall, amb predomini de productes alimentaris, begudes i tabac en establiments no especialitzats"
,c. de les Tres Creus,66,BONAREA,activitat_econòmica,"Comerç al detall, amb predomini de productes alimentaris, begudes i tabac en est",41.5476,2.10897,,,,sabadellempresa.cat,EL CENTRE,1,"c. de les Tres Creus, 66 Bxs","Comerç al detall, amb predomini de productes alimentaris, begudes i tabac en establiments no especialitzats"
,pl. de Marquilles,2,BOSCH,activitat_econòmica,"Comerç al detall de flors, plantes, llavors, fertilitzants, animals de companyia",41.5484,2.10816,,,,sabadellempresa.cat,EL CENTRE,1,"pl. de Marquilles, 2 Bxs","Comerç al detall de flors, plantes, llavors, fertilitzants, animals de companyia i aliments per a animals domèstics en establiments especialitzats"
,ptge. de Bellaterra,38,BOSCH I RIUS,activitat_econòmica,Comerç a l'engròs de tèxtils,41.5423,2.10475,,,,sabadellempresa.cat,COVADONGA,1,"ptge. de Bellaterra, 38 Bxs",Comerç a l'engròs de tèxtils
,Rambla,37,BOSSANOVA,activitat_econòmica,Comerç al detall de calçat i articles de cuir en establiments especialitzats,41.5454,2.10947,,,,sabadellempresa.cat,EL CENTRE,1,"Rambla, 37 Bxs",Comerç al detall de calçat i articles de cuir en establiments especialitzats
,pl. Laietana,48,BREAKOUT,activitat_econòmica,Establiments de begudes,41.5461,2.11726,,,,sabadellempresa.cat,COVADONGA,1,"pl. Laietana, 48 Bxs",Establiments de begudes
,c. de Sant Oleguer,77,BRESCO & ALARI,activitat_econòmica,Activitats d'agents i corredors d'assegurances,41.5505,2.10959,,,,sabadellempresa.cat,EL CENTRE,1,"c. de Sant Oleguer, 77B Bxs 1a",Activitats d'agents i corredors d'assegurances
,c. de Gràcia,26,BRILLANT,activitat_econòmica,Comerç al detall de peces de vestir en establiments especialitzats,41.5456,2.1049,,,,sabadellempresa.cat,EL CENTRE,1,"c. de Gràcia, 26 Bxs",Comerç al detall de peces de vestir en establiments especialitzats
,rda. de Ponent,43,BROOKLYN FITBOXING,activitat_econòmica,Activitats dels gimnasos,41.5461,2.11726,,,,sabadellempresa.cat,HOSTAFRANCS,1,"rda. de Ponent, 43 Bxs 1a",Activitats dels gimnasos
,raval de Dins,10,BRULLET BENEDI IMPORT SL,activitat_econòmica,Comerç a l'engròs de tèxtils,41.5421,2.12092,,,,sabadellempresa.cat,EL CENTRE,1,"raval de Dins, 10 1r A",Comerç a l'engròs de tèxtils
,c. de Sant Oleguer,77,BRUNET PUBLICITAT,activitat_econòmica,Agències de publicitat,41.5423,2.11319,,,,sabadellempresa.cat,EL CENTRE,1,"c. de Sant Oleguer, 77C Bxs 1a",Agències de publicitat
,Rambla,192,BRUNO PROJECT,activitat_econòmica,Comerç al detall de peces de vestir en establiments especialitzats,41.5445,2.10176,,,,sabadellempresa.cat,EL CENTRE,1,"Rambla, 192 Bxs",Comerç al detall de peces de vestir en establiments especialitzats
,pg. de la Plaça Major,54,BRUTAL,activitat_econòmica,Establiments de begudes,41.5425,2.11517,,,,sabadellempresa.cat,EL CENTRE,1,"pg. de la Plaça Major, 54 Bxs",Establiments de begudes
,c. de Gràcia,97,BUFET CANOVAS,activitat_econòmica,Activitats jurídiques,41.545,2.09961,,,,sabadellempresa.cat,EL CENTRE,1,"c. de Gràcia, 97 Bxs",Activitats jurídiques
,c. de Sant Antoni Maria Claret,18,BUFET CASTRO SOTO,activitat_econòmica,Activitats jurídiques,41.5508,2.10182,,,,sabadellempresa.cat,EL CENTRE,1,"c. de Sant Antoni Maria Claret, 18 2n 4a",Activitats jurídiques
,c. de Sant Antoni Maria Claret,18,BUFET CASTRO-SOTO,activitat_econòmica,Activitats jurídiques,41.5464,2.11125,,,,sabadellempresa.cat,EL CENTRE,1,"c. de Sant Antoni Maria Claret, 18 2n 4a",Activitats jurídiques
,c. de Sant Antoni Maria Claret,18,BUFET CASTRO-SOTO,activitat_econòmica,Activitats jurídiques,41.5461,2.10564,,,,sabadellempresa.cat,EL CENTRE,1,"c. de Sant Antoni Maria Claret, 18 2n 2a",Activitats jurídiques
,c. de Sant Antoni,29,BUFET JURIDIC JORGE REYES,activitat_econòmica,Activitats jurídiques,41.5422,2.12035,,,,sabadellempresa.cat,EL CENTRE,1,"c. de Sant Antoni, 29 1r",Activitats jurídiques
,pg. de Manresa,19,BUFET JURIDIC MUR,activitat_econòmica,Activitats jurídiques,41.5451,2.10994,,,,sabadellempresa.cat,EL CENTRE,1,"pg. de Manresa, 19 2n 1a",Activitats jurídiques
,c. de Narcís Giralt,67,BUFET LAYRET-PASCUAL,activitat_econòmica,Activitats jurídiques,41.5489,2.10765,,,,sabadellempresa.cat,EL CENTRE,1,"c. de Narcís Giralt, 67 1r 1a",Activitats jurídiques
,c. de Lacy,2,BUFETE MARTINEZ,activitat_econòmica,Activitats jurídiques,41.5432,2.11878,,,,sabadellempresa.cat,EL CENTRE,1,"c. de Lacy, 2 1r 2a",Activitats jurídiques
,c. de Lacy,18,BUFETE PASCUAL,activitat_econòmica,Activitats jurídiques,41.5417,2.11259,,,,sabadellempresa.cat,EL CENTRE,1,"c. de Lacy, 18 1r 1a",Activitats jurídiques
,pl. de l' Àngel,10,BUFETE VIDAL-SANCHEZ,activitat_econòmica,Activitats jurídiques,41.5476,2.10728,,,,sabadellempresa.cat,EL CENTRE,1,"pl. de l' Àngel, 10 1r 1a",Activitats jurídiques
,c. de Gràcia,30,BUO BUO,activitat_econòmica,"Comerç al detall de pa i productes de fleca, confiteria i pastisseria en establi",41.5457,2.09942,,,,sabadellempresa.cat,EL CENTRE,1,"c. de Gràcia, 30 Bxs","Comerç al detall de pa i productes de fleca, confiteria i pastisseria en establiments especialitzats"
,pg. de Manresa,19,BUREAU VALLEE,activitat_econòmica,Comerç al detall de periòdics i articles de papereria en establiments especialit,41.5495,2.10845,,,,sabadellempresa.cat,EL CENTRE,1,"pg. de Manresa, 19 Bxs",Comerç al detall de periòdics i articles de papereria en establiments especialitzats
,c. del Convent,29,BUSQUETS,activitat_econòmica,Activitats d'agents i corredors d'assegurances,41.5416,2.11264,,,,sabadellempresa.cat,EL CENTRE,1,"c. del Convent, 29 Bxs",Activitats d'agents i corredors d'assegurances
,pl. de Catalunya,17,BUXO CREDIT I CAUCIO,activitat_econòmica,Activitats d'agents i corredors d'assegurances,41.5399,2.11215,,,,sabadellempresa.cat,HOSTAFRANCS,1,"pl. de Catalunya, 17 Bxs 4a",Activitats d'agents i corredors d'assegurances
,c. de les Tres Creus,148,C E S,activitat_econòmica,Altres activitats d'educació ncaa,41.5479,2.10894,,,,sabadellempresa.cat,EL CENTRE,1,"c. de les Tres Creus, 148 Bxs",Altres activitats d'educació ncaa
,c. de la Salut,127,CA L'ANGELS,activitat_econòmica,Restaurants i establiments de menjars,41.546,2.10761,,,,sabadellempresa.cat,EL CENTRE,1,"c. de la Salut, 127 Bxs",Restaurants i establiments de menjars
,c. de Torras i Bages,6,CAF VALLES,activitat_econòmica,Promoció immobiliària,41.5487,2.10617,,,,sabadellempresa.cat,EL CENTRE,1,"c. de Torras i Bages, 6 Bxs",Promoció immobiliària
,c. de l' Estació,56,CAFE BAR GRAN VIA,activitat_econòmica,Establiments de begudes,41.5487,2.10617,,,,sabadellempresa.cat,EL CENTRE,1,"c. de l' Estació, 56 Bxs 1a",Establiments de begudes
,pg. de Manresa,37,CAFE DAURADA,activitat_econòmica,Establiments de begudes,41.5465,2.10971,,,,sabadellempresa.cat,EL CENTRE,1,"pg. de Manresa, 37 Bxs",Establiments de begudes
,ptge. de Teodor Llorente,34,CAFES PONT,activitat_econòmica,Altres tipus de comerç al detall en establiments no especialitzats,41.5465,2.10971,,,,sabadellempresa.cat,HOSTAFRANCS,1,"ptge. de Teodor Llorente, 34 Bxs",Altres tipus de comerç al detall en establiments no especialitzats
,c. de les Tres Creus,168,CAFETERIA PARENTESI,activitat_econòmica,Restaurants i establiments de menjars,41.5479,2.10738,,,,sabadellempresa.cat,EL CENTRE,1,"c. de les Tres Creus, 168 Bxs 4a",Restaurants i establiments de menjars
,c. de les Tres Creus,89,CAJAMAR,activitat_econòmica,Banca central,41.5486,2.10819,,,,sabadellempresa.cat,EL CENTRE,1,"c. de les Tres Creus, 89 Bxs",Banca central
,c. de Migdia,9,CAL SALAS,activitat_econòmica,Comerç al detall de peces de vestir en establiments especialitzats,41.5446,2.11129,,,,sabadellempresa.cat,EL CENTRE,1,"c. de Migdia, 9 Bxs",Comerç al detall de peces de vestir en establiments especialitzats
,c. de Marià Fortuny,10,CALABOCA,activitat_econòmica,Establiments de begudes,41.5422,2.11127,,,,sabadellempresa.cat,EL CENTRE,1,"c. de Marià Fortuny, 10 Bxs DR",Establiments de begudes
,c. de l' Advocat Cirera,21,CALABOCA,activitat_econòmica,Establiments de begudes,41.5441,2.11074,,,,sabadellempresa.cat,EL CENTRE,1,"c. de l' Advocat Cirera, 21 Bxs 1a",Establiments de begudes
,c. de les Valls,23,CALÇATS MUNNE 1941,activitat_econòmica,Comerç al detall de calçat i articles de cuir en establiments especialitzats,41.5442,2.11113,,,,sabadellempresa.cat,EL CENTRE,1,"c. de les Valls, 23 Bxs",Comerç al detall de calçat i articles de cuir en establiments especialitzats
,c. de Sant Pau,9,CAMARASA,activitat_econòmica,Comerç al detall d'articles d'esport en establiments especialitzats,41.5493,2.10868,,,,sabadellempresa.cat,EL CENTRE,1,"c. de Sant Pau, 9 Bxs 2a",Comerç al detall d'articles d'esport en establiments especialitzats
,c. de Narcís Giralt,50,CAMBRA DE LA PROPIETAT URBANA DE SABADELL I COMARCA,activitat_econòmica,Activitats jurídiques,41.5477,2.1072,,,,sabadellempresa.cat,EL CENTRE,1,"c. de Narcís Giralt, 50 Bxs",Activitats jurídiques
,c. de les Valls,41,CAMILO DOMINGO ADVOCAT,activitat_econòmica,Activitats jurídiques,41.5486,2.10819,,,,sabadellempresa.cat,EL CENTRE,1,"c. de les Valls, 41 4t 1a",Activitats jurídiques
,Rambla,143,CAMPS CORPORACIO,activitat_econòmica,Compravenda de béns immobiliaris per compte propi,41.5506,2.1086,,,,sabadellempresa.cat,EL CENTRE,1,"Rambla, 143 1r 3a",Compravenda de béns immobiliaris per compte propi
,ctra. de Terrassa,62,CAN MIQUEL,activitat_econòmica,Establiments de begudes,41.5495,2.09818,,,,sabadellempresa.cat,EL CENTRE,1,"ctra. de Terrassa, 62 Bxs 3a",Establiments de begudes
,c. de l' Església,13,CANALLA,activitat_econòmica,Restaurants i establiments de menjars,41.5461,2.11385,,,,sabadellempresa.cat,EL CENTRE,1,"c. de l' Església, 13 Bxs",Restaurants i establiments de menjars
,c. dels Cardona,10,CANO MARBRES ART´STICS,activitat_econòmica,Indústria de la pedra ornamental i per a la construcció,41.5464,2.10561,,,,sabadellempresa.cat,COVADONGA,1,"c. dels Cardona, 10 Bxs",Indústria de la pedra ornamental i per a la construcció
,pl. del Mercat,1,CANSALADERIA ROSER P. 118-120,activitat_econòmica,Comerç al detall de carn i productes carnis en establiments especialitzats,41.552,2.11161,,,,sabadellempresa.cat,EL CENTRE,1,"pl. del Mercat, 1 Bxs",Comerç al detall de carn i productes carnis en establiments especialitzats
,Rambla,141,CAPRABO,activitat_econòmica,"Comerç al detall, amb predomini de productes alimentaris, begudes i tabac en est",41.5457,2.10512,,,,sabadellempresa.cat,EL CENTRE,1,"Rambla, 141 Bxs","Comerç al detall, amb predomini de productes alimentaris, begudes i tabac en establiments no especialitzats"
,c. de Ferran Casablancas,23,CARLES GRAU ASSOC.,activitat_econòmica,Dipòsit i emmagatzematge,41.5472,2.11503,,,,sabadellempresa.cat,EL CENTRE,1,"c. de Ferran Casablancas, 23 Bxs",Dipòsit i emmagatzematge
,pl. del Mercat,1,CARNES SERRANO P.15-17,activitat_econòmica,Comerç al detall de carn i productes carnis en establiments especialitzats,41.5489,2.10804,,,,sabadellempresa.cat,EL CENTRE,1,"pl. del Mercat, 1 Bxs",Comerç al detall de carn i productes carnis en establiments especialitzats
,pl. del Mercat,1,CARNISSERIA MIRALPEIX P. 72-73,activitat_econòmica,Comerç al detall de carn i productes carnis en establiments especialitzats,41.5473,2.09542,,,,sabadellempresa.cat,EL CENTRE,1,"pl. del Mercat, 1 Bxs",Comerç al detall de carn i productes carnis en establiments especialitzats
,c. de Sant Pere,39,CARRERAS,activitat_econòmica,"Comerç al detall de pa i productes de fleca, confiteria i pastisseria en establi",41.5478,2.09485,,,,sabadellempresa.cat,EL CENTRE,1,"c. de Sant Pere, 39 Bxs","Comerç al detall de pa i productes de fleca, confiteria i pastisseria en establiments especialitzats"
,Rambla,153,CASA MATO - CARNS I QUEVIURES,activitat_econòmica,Comerç al detall de carn i productes carnis en establiments especialitzats,41.5461,2.11488,,,,sabadellempresa.cat,EL CENTRE,1,"Rambla, 153 Bxs",Comerç al detall de carn i productes carnis en establiments especialitzats
,pg. de la Plaça Major,66,CASA TRAVERIA,activitat_econòmica,Comerç al detall de tèxtils en establiments especialitzats,41.5463,2.1128,,,,sabadellempresa.cat,EL CENTRE,1,"pg. de la Plaça Major, 66 Bxs",Comerç al detall de tèxtils en establiments especialitzats
,pg. de la Plaça Major,9,CASAS,activitat_econòmica,Comerç al detall de calçat i articles de cuir en establiments especialitzats,41.5454,2.10673,,,,sabadellempresa.cat,EL CENTRE,1,"pg. de la Plaça Major, 9 Bxs",Comerç al detall de calçat i articles de cuir en establiments especialitzats
,ctra. de Terrassa,60,CASAS ECOLOGICAS,activitat_econòmica,Construcció d'edificis residencials,41.5449,2.10702,,,,sabadellempresa.cat,EL CENTRE,1,"ctra. de Terrassa, 60 Bxs",Construcció d'edificis residencials
,c. de Calderón,96,CASER ASSEGURANCES,activitat_econòmica,"Assegurances, excepte assegurances de vida",41.5485,2.10897,,,,sabadellempresa.cat,EL CENTRE,1,"c. de Calderón, 96 Bxs","Assegurances, excepte assegurances de vida"
,ptge. de Teodor Llorente,18,CASIV,activitat_econòmica,Reparació de maquinària,41.5458,2.10721,,,,sabadellempresa.cat,HOSTAFRANCS,1,"ptge. de Teodor Llorente, 18 Bxs",Reparació de maquinària
,pl. Laietana,15,CASKADIA WINES,activitat_econòmica,Dipòsit i emmagatzematge,41.5486,2.10757,,,,sabadellempresa.cat,COVADONGA,1,"pl. Laietana, 15 Bxs",Dipòsit i emmagatzematge
,c. de la Concepció,12,CASSA,activitat_econòmica,Dipòsit i emmagatzematge,41.5455,2.10827,,,,sabadellempresa.cat,EL CENTRE,1,"c. de la Concepció, 12 Bxs",Dipòsit i emmagatzematge
,c. dels Sentmenat,54,CASTELLO,activitat_econòmica,Perruqueria i altres tractaments de bellesa,41.5454,2.11081,,,,sabadellempresa.cat,COVADONGA,1,"c. dels Sentmenat, 54 Bxs",Perruqueria i altres tractaments de bellesa
,c. de Sant Quirze,45,CASTELLVELL,activitat_econòmica,Comerç al detall de jocs i joguines en establiments especialitzats,41.5482,2.10716,,,,sabadellempresa.cat,EL CENTRE,1,"c. de Sant Quirze, 45 Bxs",Comerç al detall de jocs i joguines en establiments especialitzats
,c. del Sol,1,CATALANA OCCIDENT,activitat_econòmica,Activitats d'agents i corredors d'assegurances,41.5422,2.11127,,,,sabadellempresa.cat,EL CENTRE,1,"c. del Sol, 1 1r 1a",Activitats d'agents i corredors d'assegurances
,c. d'en Font,6,CAYELLAS,activitat_econòmica,Comerç al detall d'articles de rellotgeria i joieria en establiments especialitz,41.5416,2.10934,,,,sabadellempresa.cat,EL CENTRE,1,"c. d'en Font, 6 Bxs",Comerç al detall d'articles de rellotgeria i joieria en establiments especialitzats
,c. d' Alemanya,100,CBVSI,activitat_econòmica,Serveis tècnics d'enginyeria i altres activitats relacionades amb l'assessoramen,41.5443,2.10086,,,,sabadellempresa.cat,EL CENTRE,1,"c. d' Alemanya, 100 2n",Serveis tècnics d'enginyeria i altres activitats relacionades amb l'assessorament tècnic
,c. de Corominas,71,CEDAR CREST SL,activitat_econòmica,Serveis tècnics d'enginyeria i altres activitats relacionades amb l'assessoramen,41.5469,2.10837,,,,sabadellempresa.cat,EL CENTRE,1,"c. de Corominas, 71 Bxs",Serveis tècnics d'enginyeria i altres activitats relacionades amb l'assessorament tècnic
,c. de Montserrat,22,CEL·LULA ACCION CREATIVA,activitat_econòmica,Altres activitats d'edició,41.5435,2.11773,,,,sabadellempresa.cat,EL CENTRE,1,"c. de Montserrat, 22 2n 1a",Altres activitats d'edició
,ctra. de Terrassa,22,CENTRE ASANA,activitat_econòmica,Activitats dels gimnasos,41.5473,2.1055,,,,sabadellempresa.cat,EL CENTRE,1,"ctra. de Terrassa, 22 Bxs",Activitats dels gimnasos
,c. de Sant Cugat,114,CENTRE D'OFTALMOLOGIA,activitat_econòmica,Activitats de medicina especialitzada,41.5422,2.11125,,,,sabadellempresa.cat,EL CENTRE,1,"c. de Sant Cugat, 114 1r",Activitats de medicina especialitzada
,c. de Sant Cugat,116,CENTRE D'OFTALMOLOGIA INSTITUT DE LA RETINA,activitat_econòmica,Activitats de medicina especialitzada,41.5434,2.10651,,,,sabadellempresa.cat,EL CENTRE,1,"c. de Sant Cugat, 116 Bxs",Activitats de medicina especialitzada
,c. de Sant Antoni Maria Claret,18,CENTRE DE CARDIOLOGIA LOUBAD & IRIARTE,activitat_econòmica,Activitats de medicina especialitzada,41.5473,2.1055,,,,sabadellempresa.cat,EL CENTRE,1,"c. de Sant Antoni Maria Claret, 18 4t 1a",Activitats de medicina especialitzada
,c. de les Valls,28,CENTRE HABILIS,activitat_econòmica,Activitats de medicina especialitzada,41.5473,2.1055,,,,sabadellempresa.cat,EL CENTRE,1,"c. de les Valls, 28 1r 1a",Activitats de medicina especialitzada
,c. de Sant Pau,159,CENTRE PODOLOLOGIC,activitat_econòmica,Altres activitats sanitàries,41.5468,2.10132,,,,sabadellempresa.cat,EL CENTRE,1,"c. de Sant Pau, 159 Bxs",Altres activitats sanitàries
,ctra. de Barcelona,109,CENTRO SOFA,activitat_econòmica,"Comerç al detall de mobles, aparells d'il·luminació i d'altres articles d'ús dom",41.5454,2.10755,,,,sabadellempresa.cat,EL CENTRE,1,"ctra. de Barcelona, 109 Bxs","Comerç al detall de mobles, aparells d'il·luminació i d'altres articles d'ús domèstic en establiments especialitzats"
,c. de Gràcia,102,CHAI,activitat_econòmica,Restaurants i establiments de menjars,41.5418,2.11147,,,,sabadellempresa.cat,EL CENTRE,1,"c. de Gràcia, 102 Bxs 1a",Restaurants i establiments de menjars
,c. de Sant Josep,31,CINDRI SERVEIS SL,activitat_econòmica,Serveis tècnics d'arquitectura,41.5482,2.10884,,,,sabadellempresa.cat,EL CENTRE,1,"c. de Sant Josep, 31 Bxs",Serveis tècnics d'arquitectura
,c. de Sant Joan,37,CITY TIMES,activitat_econòmica,Comerç al detall de peces de vestir en establiments especialitzats,41.5471,2.10855,,,,sabadellempresa.cat,EL CENTRE,1,"c. de Sant Joan, 37 Bxs",Comerç al detall de peces de vestir en establiments especialitzats
,c. de Sant Antoni,30,CITY VIATGES,activitat_econòmica,Activitats de les agències de viatges,41.5442,2.1009,,,,sabadellempresa.cat,EL CENTRE,1,"c. de Sant Antoni, 30 Bxs",Activitats de les agències de viatges
,c. d' Arimon,2,CIXA CONS DES PROY ING DIS E INNOV SLU,activitat_econòmica,Serveis tècnics d'enginyeria i altres activitats relacionades amb l'assessoramen,41.5472,2.10276,,,,sabadellempresa.cat,EL CENTRE,1,"c. d' Arimon, 2D 5è 1a",Serveis tècnics d'enginyeria i altres activitats relacionades amb l'assessorament tècnic
,c. de Duran i Sors,4,CLAREL,activitat_econòmica,Comerç al detall de productes cosmètics i higiènics en establiments especialitza,41.5477,2.09671,,,,sabadellempresa.cat,EL CENTRE,1,"c. de Duran i Sors, 4 Bxs A",Comerç al detall de productes cosmètics i higiènics en establiments especialitzats
,c. de Jovellanos,93,CLARENCE HOUSE SCHOOL OF ENGLISH,activitat_econòmica,Altres activitats d'educació ncaa,41.5439,2.11971,,,,sabadellempresa.cat,EL CENTRE,1,"c. de Jovellanos, 93 Bxs 2a",Altres activitats d'educació ncaa
,c. de Sant Pau,2,CLINICA DENTAL BORRELL,activitat_econòmica,Activitats odontològiques,41.5475,2.11274,,,,sabadellempresa.cat,EL CENTRE,1,"c. de Sant Pau, 2 1r 2a",Activitats odontològiques
,rda. de Zamenhof,149,CLINICA DENTAL DR. J. ESPINOZA,activitat_econòmica,Activitats odontològiques,41.5422,2.11884,,,,sabadellempresa.cat,EL CENTRE,1,"rda. de Zamenhof, 149 1r 1a",Activitats odontològiques
,c. del Sol,35,CLINICA DENTAL SALES,activitat_econòmica,Activitats odontològiques,41.5463,2.10622,,,,sabadellempresa.cat,EL CENTRE,1,"c. del Sol, 35 Bxs 2a",Activitats odontològiques
,pg. de la Plaça Major,21,CLINICA ODONTOLOGICA SERRA RISTOL,activitat_econòmica,Activitats odontològiques,41.5459,2.10884,,,,sabadellempresa.cat,EL CENTRE,1,"pg. de la Plaça Major, 21 3r 1a",Activitats odontològiques
,c. de Sant Pau,7,CLINICA PODOLOGICA,activitat_econòmica,Activitats de medicina especialitzada,41.547,2.10568,,,,sabadellempresa.cat,EL CENTRE,1,"c. de Sant Pau, 7 2n 1a",Activitats de medicina especialitzada
,c. de l' Església,7,CLINICA SANT FELIX,activitat_econòmica,Activitats odontològiques,41.5416,2.10522,,,,sabadellempresa.cat,EL CENTRE,1,"c. de l' Església, 7 1r A",Activitats odontològiques
,c. de Colom,53,CLINICA VETERINARIA DEL CENTRE,activitat_econòmica,Activitats veterinàries,41.5485,2.10366,,,,sabadellempresa.cat,EL CENTRE,1,"c. de Colom, 53 Bxs 1a",Activitats veterinàries
,c. dels Montcada,10,CLUB NATACIO SABADELL - PARQUING,activitat_econòmica,Activitats afins al transport terrestre,41.5431,2.10949,,,,sabadellempresa.cat,COVADONGA,1,"c. dels Montcada, 10 Bxs",Activitats afins al transport terrestre
,c. de l' Escola Industrial,22,CM CONDUCTORS SBD,activitat_econòmica,Activitats de fotografia,41.551,2.11211,,,,sabadellempresa.cat,EL CENTRE,1,"c. de l' Escola Industrial, 22 Bxs",Activitats de fotografia
,c. de Sant Joan,40,COCO,activitat_econòmica,Comerç al detall de peces de vestir en establiments especialitzats,41.5439,2.10214,,,,sabadellempresa.cat,EL CENTRE,1,"c. de Sant Joan, 40 Bxs",Comerç al detall de peces de vestir en establiments especialitzats
,c. de Gràcia,106,CODELEARN,activitat_econòmica,Altres activitats d'educació ncaa,41.5437,2.10321,,,,sabadellempresa.cat,EL CENTRE,1,"c. de Gràcia, 106 Bxs 1a",Altres activitats d'educació ncaa
,c. de les Valls,39,CODIGO DE BARRA QUE CAFE,activitat_econòmica,Establiments de begudes,41.5437,2.10319,,,,sabadellempresa.cat,EL CENTRE,1,"c. de les Valls, 39 Bxs",Establiments de begudes
,pl. de Marquilles,3,CODINA & ASSOC SL,activitat_econòmica,"Activitats de comptabilitat, tenidoria de llibres, auditoria i assessoria fiscal",41.5465,2.10971,,,,sabadellempresa.cat,EL CENTRE,1,"pl. de Marquilles, 3 Bxs","Activitats de comptabilitat, tenidoria de llibres, auditoria i assessoria fiscal"
,c. de Lacy,17,COL.LEGI D'ADVOCATS,activitat_econòmica,Activitats d'organitzacions professionals,41.5485,2.10715,,,,sabadellempresa.cat,EL CENTRE,1,"c. de Lacy, 17 Bxs",Activitats d'organitzacions professionals
,pl. del Doctor Robert,2,COLONIAL,activitat_econòmica,Comerç al detall de peces de vestir en establiments especialitzats,41.54,2.1091,,,,sabadellempresa.cat,EL CENTRE,1,"pl. del Doctor Robert, 2 Bxs 1a",Comerç al detall de peces de vestir en establiments especialitzats
,c. del Doctor Puig,44,COMED,activitat_econòmica,"Comerç al detall de flors, plantes, llavors, fertilitzants, animals de companyia",41.5412,2.10535,,,,sabadellempresa.cat,EL CENTRE,1,"c. del Doctor Puig, 44 Bxs 1a","Comerç al detall de flors, plantes, llavors, fertilitzants, animals de companyia i aliments per a animals domèstics en establiments especialitzats"
,c. de Sallarès i Pla,91,COMERCIAL CAMILO PRODUCTES PER FORNS I PASTISSERIE,activitat_econòmica,"Comerç a l'engròs, no especialitzat, de productes alimentaris, begudes i tabac",41.5497,2.10543,,,,sabadellempresa.cat,EL CENTRE,1,"c. de Sallarès i Pla, 91 Bxs","Comerç a l'engròs, no especialitzat, de productes alimentaris, begudes i tabac"
,c. de Moratín,108,COMERCIAL DEL MARMOL,activitat_econòmica,Fabricació d'altres productes metàl·lics ncaa,41.548,2.10732,,,,sabadellempresa.cat,HOSTAFRANCS,1,"c. de Moratín, 108 Bxs",Fabricació d'altres productes metàl·lics ncaa
,camí de Ca la Daniela,7,COMHIL SL,activitat_econòmica,Comerç a l'engròs de tèxtils,41.5484,2.11161,,,,sabadellempresa.cat,,,"camí de Ca la Daniela, 7 Bxs",Comerç a l'engròs de tèxtils
,c. del Pare Sallarès,91,COMINTERCO,activitat_econòmica,Agències de publicitat,41.5474,2.10978,,,,sabadellempresa.cat,EL CENTRE,1,"c. del Pare Sallarès, 91 Bxs",Agències de publicitat
,c. de les Valls,41,COMPREM OR,activitat_econòmica,Comerç a l'engròs de rellotges i joieria,41.548,2.10736,,,,sabadellempresa.cat,EL CENTRE,1,"c. de les Valls, 41 Bxs",Comerç a l'engròs de rellotges i joieria
,c. de Sant Cugat,100,CONCOR,activitat_econòmica,Altres activitats recreatives i d'entreteniment ncaa,41.5496,2.11407,,,,sabadellempresa.cat,EL CENTRE,1,"c. de Sant Cugat, 100 Bxs",Altres activitats recreatives i d'entreteniment ncaa
,c. de les Valls,26,CONDIS,activitat_econòmica,"Comerç al detall, amb predomini de productes alimentaris, begudes i tabac en est",41.5403,2.11143,,,,sabadellempresa.cat,EL CENTRE,1,"c. de les Valls, 26 Bxs","Comerç al detall, amb predomini de productes alimentaris, begudes i tabac en establiments no especialitzats"
,c. de Balmes,31,CONDIS,activitat_econòmica,"Comerç al detall, amb predomini de productes alimentaris, begudes i tabac en est",41.5502,2.10409,,,,sabadellempresa.cat,COVADONGA,1,"c. de Balmes, 31 Bxs","Comerç al detall, amb predomini de productes alimentaris, begudes i tabac en establiments no especialitzats"
,c. de Gràcia,181,CONDIS,activitat_econòmica,"Comerç al detall, amb predomini de productes alimentaris, begudes i tabac en est",41.5457,2.10813,,,,sabadellempresa.cat,EL CENTRE,1,"c. de Gràcia, 181 Bxs 1a","Comerç al detall, amb predomini de productes alimentaris, begudes i tabac en establiments no especialitzats"
,c. de la República,11,CONDIS EXPRESS,activitat_econòmica,"Comerç al detall, amb predomini de productes alimentaris, begudes i tabac en est",41.5457,2.10813,,,,sabadellempresa.cat,EL CENTRE,1,"c. de la República, 11 Bxs 1a","Comerç al detall, amb predomini de productes alimentaris, begudes i tabac en establiments no especialitzats"
,ptge. de Clavé,2,CONFORMADOS METALICOS SL,activitat_econòmica,Fabricació d'altres productes metàl·lics ncaa,41.5503,2.10404,,,,sabadellempresa.cat,EL CENTRE,1,"ptge. de Clavé, 2 Bxs",Fabricació d'altres productes metàl·lics ncaa
,ptge. de Teodor Llorente,6,CONSMEPA SL,activitat_econòmica,Fabricació de maquinària per a les indústries metal·lúrgiques,41.5503,2.09983,,,,sabadellempresa.cat,HOSTAFRANCS,1,"ptge. de Teodor Llorente, 6 Bxs",Fabricació de maquinària per a les indústries metal·lúrgiques
,c. de Sant Llorenç,76,CONSTRUCCIO,activitat_econòmica,Construcció d'edificis residencials,41.5451,2.10909,,,,sabadellempresa.cat,EL CENTRE,1,"c. de Sant Llorenç, 76 Bxs 2a",Construcció d'edificis residencials
,ptge. del Vallès,18,CONSTRUCCIONES CIVILES MEDIOAMBIENTALES SL,activitat_econòmica,Demolició d'immobles,41.5473,2.10851,,,,sabadellempresa.cat,EL CENTRE,1,"ptge. del Vallès, 18B Bxs 3a",Demolició d'immobles
,c. de Riego,19,CONSTRUCTORA GARRIDO MARTINEZ S L,activitat_econòmica,Construcció d'edificis residencials,41.5455,2.10826,,,,sabadellempresa.cat,EL CENTRE,1,"c. de Riego, 19 Bxs",Construcció d'edificis residencials
,c. de Marià Fortuny,25,CONSULTING SAURA SL,activitat_econòmica,"Activitats de comptabilitat, tenidoria de llibres, auditoria i assessoria fiscal",41.547,2.10836,,,,sabadellempresa.cat,EL CENTRE,1,"c. de Marià Fortuny, 25 Ent 1a","Activitats de comptabilitat, tenidoria de llibres, auditoria i assessoria fiscal"
,pl. del Mercat,1,CONSUM MERCAT CENTRAL,activitat_econòmica,"Comerç al detall, amb predomini de productes alimentaris, begudes i tabac en est",41.5461,2.10348,,,,sabadellempresa.cat,EL CENTRE,1,"pl. del Mercat, 1 Bxs","Comerç al detall, amb predomini de productes alimentaris, begudes i tabac en establiments no especialitzats"
,c. de la República,8,COPISTERIA FUSTE,activitat_econòmica,Altres activitats d'impressió i arts gràfiques,41.5447,2.11828,,,,sabadellempresa.cat,EL CENTRE,1,"c. de la República, 8 Bxs",Altres activitats d'impressió i arts gràfiques
,Rambla,105,CORINTO,activitat_econòmica,Comerç al detall de calçat i articles de cuir en establiments especialitzats,41.5475,2.10621,,,,sabadellempresa.cat,EL CENTRE,1,"Rambla, 105 Bxs",Comerç al detall de calçat i articles de cuir en establiments especialitzats
,c. del Marquès de Comillas,139,CORSAIR,activitat_econòmica,Perruqueria i altres tractaments de bellesa,41.551,2.11354,,,,sabadellempresa.cat,EL CENTRE,1,"c. del Marquès de Comillas, 139B Bxs 6a",Perruqueria i altres tractaments de bellesa
,c. de Sant Oleguer,76,COTOTEX S L,activitat_econòmica,Comerç a l'engròs de tèxtils,41.5473,2.10967,,,,sabadellempresa.cat,EL CENTRE,1,"c. de Sant Oleguer, 76 Bxs",Comerç a l'engròs de tèxtils
,c. de Sant Antoni,16,COTS,activitat_econòmica,Comerç al detall de peces de vestir en establiments especialitzats,41.5497,2.10536,,,,sabadellempresa.cat,EL CENTRE,1,"c. de Sant Antoni, 16 Bxs",Comerç al detall de peces de vestir en establiments especialitzats
,pl. de Sant Roc,23,COTTET,activitat_econòmica,Comerç al detall d'articles mèdics i ortopèdics en establiments especialitzats,41.5482,2.10718,,,,sabadellempresa.cat,EL CENTRE,1,"pl. de Sant Roc, 23 Bxs",Comerç al detall d'articles mèdics i ortopèdics en establiments especialitzats
,pl. de Sant Roc,23,COTTET CENTRE AUDITIU,activitat_econòmica,Comerç al detall d'articles mèdics i ortopèdics en establiments especialitzats,41.5461,2.10566,,,,sabadellempresa.cat,EL CENTRE,1,"pl. de Sant Roc, 23 Bxs",Comerç al detall d'articles mèdics i ortopèdics en establiments especialitzats
,c. de Balmes,33,COTXES BRILLANTS,activitat_econòmica,Manteniment i reparació de vehicles de motor,41.5442,2.11093,,,,sabadellempresa.cat,COVADONGA,1,"c. de Balmes, 33 Bxs",Manteniment i reparació de vehicles de motor
,c. de les Tres Creus,236,CPE (CENTRE DE PROMOCIÓ EMPRESARIAL),activitat_econòmica,Altres activitats de suport a les empreses ncaa,41.5464,2.10922,,,,sabadellempresa.cat,COVADONGA,1,"c. de les Tres Creus, 236 Bxs",Altres activitats de suport a les empreses ncaa
,c. del Sol,62,CREC COWORKING,activitat_econòmica,Serveis administratius combinats,41.5496,2.1091,,,,sabadellempresa.cat,EL CENTRE,1,"c. del Sol, 62 Bxs",Serveis administratius combinats
,c. de Joaquín Costa,81,CREMALON SL,activitat_econòmica,"Fabricació d'envasos i embalatges lleugers, en metall",41.543,2.1138,,,,sabadellempresa.cat,HOSTAFRANCS,1,"c. de Joaquín Costa, 81 Bxs","Fabricació d'envasos i embalatges lleugers, en metall"
,c. de la Indústria,47,CRESINCA,activitat_econòmica,Promoció immobiliària,41.5422,2.12024,,,,sabadellempresa.cat,EL CENTRE,1,"c. de la Indústria, 47 Bxs",Promoció immobiliària
,pg. de Manresa,19,CRIT INTERIM ETT,activitat_econòmica,Activitats de les empreses de treball temporal,41.5467,2.09518,,,,sabadellempresa.cat,EL CENTRE,1,"pg. de Manresa, 19 4t 3a",Activitats de les empreses de treball temporal
,c. de Sant Oleguer,46,"CROSS FUNCIONAL, 30",activitat_econòmica,Altres activitats relacionades amb l'esport,41.5541,2.11644,,,,sabadellempresa.cat,EL CENTRE,1,"c. de Sant Oleguer, 46 Bxs",Altres activitats relacionades amb l'esport
,rda. de Ponent,45,"CROSS FUNCIONAL, 30",activitat_econòmica,Altres activitats relacionades amb l'esport,41.5479,2.1029,,,,sabadellempresa.cat,HOSTAFRANCS,1,"rda. de Ponent, 45 Bxs 3a",Altres activitats relacionades amb l'esport
,ctra. de Terrassa,184,CUINES CHOCLAN,activitat_econòmica,Fabricació de mobles de cuina,41.5482,2.10716,,,,sabadellempresa.cat,HOSTAFRANCS,1,"ctra. de Terrassa, 184 Bxs",Fabricació de mobles de cuina
,rda. de Ponent,66,CUIRS,activitat_econòmica,"Comerç al detall de mobles, aparells d'il·luminació i d'altres articles d'ús dom",41.544,2.10341,,,,sabadellempresa.cat,EL CENTRE,1,"rda. de Ponent, 66 Bxs","Comerç al detall de mobles, aparells d'il·luminació i d'altres articles d'ús domèstic en establiments especialitzats"
,rda. de Ponent,135,CUPRA,activitat_econòmica,Venda d'automòbils i vehicles de motor lleuger,41.5485,2.10721,,,,sabadellempresa.cat,HOSTAFRANCS,1,"rda. de Ponent, 135 Bxs",Venda d'automòbils i vehicles de motor lleuger
,pl. de Sant Jaume,3,CURSOR S L,activitat_econòmica,Serveis tècnics d'enginyeria i altres activitats relacionades amb l'assessoramen,41.5506,2.10441,,,,sabadellempresa.cat,EL CENTRE,1,"pl. de Sant Jaume, 3 1r 1a",Serveis tècnics d'enginyeria i altres activitats relacionades amb l'assessorament tècnic
,c. de Calderón,160,CURVES SABADELL FITNESS,activitat_econòmica,Activitats dels gimnasos,41.547,2.11625,,,,sabadellempresa.cat,EL CENTRE,1,"c. de Calderón, 160 Bxs 2a",Activitats dels gimnasos
,c. de Sant Llorenç,10,CVS INFORMATICA,activitat_econòmica,"Comerç al detall d'ordinadors, equips perifèrics i programes informàtics en esta",41.5458,2.1104,,,,sabadellempresa.cat,EL CENTRE,1,"c. de Sant Llorenç, 10 Bxs 3a","Comerç al detall d'ordinadors, equips perifèrics i programes informàtics en establiments especialitzats"
,c. de Gràcia,146,DA MARIO,activitat_econòmica,"Fabricació de pastes alimentàries, cuscús i productes similars",41.5445,2.10228,,,,sabadellempresa.cat,EL CENTRE,1,"c. de Gràcia, 146 Bxs","Fabricació de pastes alimentàries, cuscús i productes similars"
,pl. de Sant Jaume,3,DALMASES ASSESSORS,activitat_econòmica,"Activitats de comptabilitat, tenidoria de llibres, auditoria i assessoria fiscal",41.5478,2.09723,,,,sabadellempresa.cat,EL CENTRE,1,"pl. de Sant Jaume, 3 1r 1a","Activitats de comptabilitat, tenidoria de llibres, auditoria i assessoria fiscal"
,pg. de Manresa,3,DARIL,activitat_econòmica,Activitats de medicina especialitzada,41.547,2.11193,,,,sabadellempresa.cat,EL CENTRE,1,"pg. de Manresa, 3 1r 1a",Activitats de medicina especialitzada
,c. de Margenat,2,DE BUENA TINTA SABADELL,activitat_econòmica,"Comerç al detall d'ordinadors, equips perifèrics i programes informàtics en esta",41.5436,2.11186,,,,sabadellempresa.cat,HOSTAFRANCS,1,"c. de Margenat, 2 Bxs","Comerç al detall d'ordinadors, equips perifèrics i programes informàtics en establiments especialitzats"
,c. de Sant Antoni,26,DE LA TERRA A L'OLLA,activitat_econòmica,"Comerç al detall, amb predomini de productes alimentaris, begudes i tabac en est",41.5489,2.10869,,,,sabadellempresa.cat,EL CENTRE,1,"c. de Sant Antoni, 26 Bxs","Comerç al detall, amb predomini de productes alimentaris, begudes i tabac en establiments no especialitzats"
,c. de Lacy,109,DE LEGE ADVOCATS,activitat_econòmica,Activitats jurídiques,41.5473,2.1055,,,,sabadellempresa.cat,EL CENTRE,1,"c. de Lacy, 109 B Bxs 1a",Activitats jurídiques
,Rambla,91,DECATHLON CITY,activitat_econòmica,Comerç al detall d'articles d'esport en establiments especialitzats,41.5456,2.1102,,,,sabadellempresa.cat,EL CENTRE,1,"Rambla, 91 Bxs",Comerç al detall d'articles d'esport en establiments especialitzats
,c. de Torras i Bages,21,DELICIES SENSE GLUTEN,activitat_econòmica,"Comerç al detall, amb predomini de productes alimentaris, begudes i tabac en est",41.5435,2.11069,,,,sabadellempresa.cat,EL CENTRE,1,"c. de Torras i Bages, 21 Bxs","Comerç al detall, amb predomini de productes alimentaris, begudes i tabac en establiments no especialitzats"
,c. del Marquès de Comillas,29,DESTACA TINTORERIES,activitat_econòmica,Rentatge i neteja de peces tèxtils i de pell,41.5455,2.11606,,,,sabadellempresa.cat,EL CENTRE,1,"c. del Marquès de Comillas, 29 Bxs",Rentatge i neteja de peces tèxtils i de pell
,pg. de Manresa,13,DEU DISSENY,activitat_econòmica,Serveis tècnics d'enginyeria i altres activitats relacionades amb l'assessoramen,41.5416,2.11249,,,,sabadellempresa.cat,EL CENTRE,1,"pg. de Manresa, 13 3r 4a",Serveis tècnics d'enginyeria i altres activitats relacionades amb l'assessorament tècnic
,c. de Duran i Sors,8,DIA MARKET,activitat_econòmica,"Comerç a l'engròs, no especialitzat, de productes alimentaris, begudes i tabac",41.5483,2.1078,,,,sabadellempresa.cat,EL CENTRE,1,"c. de Duran i Sors, 8 Bxs","Comerç a l'engròs, no especialitzat, de productes alimentaris, begudes i tabac"
,c. de les Tres Creus,9,DIANA MODA I COMPLEMENTS,activitat_econòmica,Comerç al detall de peces de vestir en establiments especialitzats,41.546,2.10851,,,,sabadellempresa.cat,EL CENTRE,1,"c. de les Tres Creus, 9 Bxs",Comerç al detall de peces de vestir en establiments especialitzats
,rda. de Ponent,33,DIBOXES,activitat_econòmica,"Venda, manteniment i reparació de motocicletes, i dels seus recanvis i accessori",41.546,2.10851,,,,sabadellempresa.cat,HOSTAFRANCS,1,"rda. de Ponent, 33 Bxs 1a","Venda, manteniment i reparació de motocicletes, i dels seus recanvis i accessoris"
,c. de Riego,3,DICOMA JARDINS SCP,activitat_econòmica,Comerç a l'engròs de flors i plantes,41.5429,2.11782,,,,sabadellempresa.cat,EL CENTRE,1,"c. de Riego, 3 Bxs",Comerç a l'engròs de flors i plantes
,c. de Bosch i Cardellach,84,DIGITAL FACTORY,activitat_econòmica,Fabricació d'instruments i subministraments mèdics i odontològics,41.5474,2.09478,,,,sabadellempresa.cat,EL CENTRE,1,"c. de Bosch i Cardellach, 84 Bxs",Fabricació d'instruments i subministraments mèdics i odontològics
,Rambla,33,DIMA SABATERS,activitat_econòmica,Comerç al detall de calçat i articles de cuir en establiments especialitzats,41.5461,2.11726,,,,sabadellempresa.cat,EL CENTRE,1,"Rambla, 33 Bxs",Comerç al detall de calçat i articles de cuir en establiments especialitzats
,c. de Santiga,19,DISBLANC SABADELL SL,activitat_econòmica,Dipòsit i emmagatzematge,41.5444,2.10919,,,,sabadellempresa.cat,COVADONGA,1,"c. de Santiga, 19 Bxs",Dipòsit i emmagatzematge
,c. de Sant Llorenç,76,DISSENY,activitat_econòmica,Activitats de disseny especialitzat,41.5475,2.09606,,,,sabadellempresa.cat,EL CENTRE,1,"c. de Sant Llorenç, 76 Bxs 2a",Activitats de disseny especialitzat
,c. de les Tres Creus,236,DIVERS,activitat_econòmica,Serveis tècnics d'arquitectura,41.5477,2.11342,,,,sabadellempresa.cat,COVADONGA,1,"c. de les Tres Creus, 236 Bxs",Serveis tècnics d'arquitectura
,pg. de Manresa,20,DOCTORA MARTA LARROSA PADRO REUMATOLOGA,activitat_econòmica,Activitats de medicina especialitzada,41.5486,2.10819,,,,sabadellempresa.cat,EL CENTRE,1,"pg. de Manresa, 20 1r 2a",Activitats de medicina especialitzada
,Rambla,24,DORMITY,activitat_econòmica,"Comerç al detall de mobles, aparells d'il·luminació i d'altres articles d'ús dom",41.5424,2.11212,,,,sabadellempresa.cat,EL CENTRE,1,"Rambla, 24 Bxs","Comerç al detall de mobles, aparells d'il·luminació i d'altres articles d'ús domèstic en establiments especialitzats"
,rda. de Zamenhof,119,DOS ROMBOS TATOO,activitat_econòmica,Altres activitats de serveis personals ncaa,41.5459,2.09937,,,,sabadellempresa.cat,EL CENTRE,1,"rda. de Zamenhof, 119 Bxs C",Altres activitats de serveis personals ncaa
,pl. de Catalunya,17,DR ULLOT FONT TRAUMATOLOGIA,activitat_econòmica,Activitats de medicina especialitzada,41.5456,2.09625,,,,sabadellempresa.cat,HOSTAFRANCS,1,"pl. de Catalunya, 17 1r 2a",Activitats de medicina especialitzada
,c. del Sol,4,DR. HERRERO VILA,activitat_econòmica,Activitats de medicina especialitzada,41.5409,2.10575,,,,sabadellempresa.cat,EL CENTRE,1,"c. del Sol, 4 1r",Activitats de medicina especialitzada
,pl. de l' Àngel,10,DR. SERRA AMENGUAL CIRUGIA MÁXILOFACIAL,activitat_econòmica,Activitats odontològiques,41.5464,2.09957,,,,sabadellempresa.cat,EL CENTRE,1,"pl. de l' Àngel, 10 2n 2a",Activitats odontològiques
,c. del Sol,62,DRIBO,activitat_econòmica,Activitats de les escoles de conducció i pilotatge,41.5481,2.09869,,,,sabadellempresa.cat,EL CENTRE,1,"c. del Sol, 62 Bxs",Activitats de les escoles de conducció i pilotatge
,c. de l' Escola Pia,71,DRISS ESCOLA DE DANSA,activitat_econòmica,Educació relacionada amb la cultura,41.5481,2.09869,,,,sabadellempresa.cat,EL CENTRE,1,"c. de l' Escola Pia, 71 Bxs",Educació relacionada amb la cultura
,Rambla,207,DRUNI,activitat_econòmica,Comerç al detall de productes cosmètics i higiènics en establiments especialitza,41.5466,2.10483,,,,sabadellempresa.cat,EL CENTRE,1,"Rambla, 207 Bxs 1a",Comerç al detall de productes cosmètics i higiènics en establiments especialitzats
,pl. de Ricard Simó Bach,8,DS- DIARI DE SABADELL,activitat_econòmica,Edició de periòdics,41.5468,2.10132,,,,sabadellempresa.cat,EL CENTRE,1,"pl. de Ricard Simó Bach, 8 Bxs 1a",Edició de periòdics
,c. de l' Estació,28,E BERNUZ CASALS ADVOCAT,activitat_econòmica,Activitats jurídiques,41.5481,2.11159,,,,sabadellempresa.cat,EL CENTRE,1,"c. de l' Estació, 28B Bxs 1a",Activitats jurídiques
,pg. de Manresa,19,E L ADVOCATS,activitat_econòmica,Activitats jurídiques,41.5505,2.10467,,,,sabadellempresa.cat,EL CENTRE,1,"pg. de Manresa, 19 3r 2a",Activitats jurídiques
,c. de Sant Quirze,55,E SUSIN GABINET JURIDIC INTERNACIOMAL,activitat_econòmica,Activitats jurídiques,41.5466,2.10483,,,,sabadellempresa.cat,EL CENTRE,1,"c. de Sant Quirze, 55 2n",Activitats jurídiques
,c. de Sant Josep,20,ECO PLARK TALLERS,activitat_econòmica,Manteniment i reparació de vehicles de motor,41.5483,2.10837,,,,sabadellempresa.cat,EL CENTRE,1,"c. de Sant Josep, 20 Bxs",Manteniment i reparació de vehicles de motor
,c. de la Fàbrica dels Nois Buxó,31,ECO REPAL VALLES SL,activitat_econòmica,"Comerç a l'engròs de fusta, materials de construcció i aparells sanitaris",41.5483,2.10837,,,,sabadellempresa.cat,COVADONGA,1,"c. de la Fàbrica dels Nois Buxó, 31 Bxs","Comerç a l'engròs de fusta, materials de construcció i aparells sanitaris"
,rda. de Ponent,47,ECOENERGIC,activitat_econòmica,Venda d'automòbils i vehicles de motor lleuger,41.5483,2.10837,,,,sabadellempresa.cat,HOSTAFRANCS,1,"rda. de Ponent, 47 Bxs",Venda d'automòbils i vehicles de motor lleuger
,c. de l' Advocat Cirera,25,EEV,activitat_econòmica,Serveis tècnics d'enginyeria i altres activitats relacionades amb l'assessoramen,41.5462,2.09926,,,,sabadellempresa.cat,EL CENTRE,1,"c. de l' Advocat Cirera, 25 1r",Serveis tècnics d'enginyeria i altres activitats relacionades amb l'assessorament tècnic
,c. de Calderón,194,EFAARQUITECTES,activitat_econòmica,Serveis tècnics d'arquitectura,41.5481,2.10745,,,,sabadellempresa.cat,EL CENTRE,1,"c. de Calderón, 194 2n",Serveis tècnics d'arquitectura
,c. de Jovellanos,6,EL CAFE,activitat_econòmica,Establiments de begudes,41.5448,2.11421,,,,sabadellempresa.cat,EL CENTRE,1,"c. de Jovellanos, 6 Bxs E",Establiments de begudes
,Rambla,80,EL FORNET,activitat_econòmica,"Comerç al detall de pa i productes de fleca, confiteria i pastisseria en establi",41.5448,2.11421,,,,sabadellempresa.cat,EL CENTRE,1,"Rambla, 80 Bxs","Comerç al detall de pa i productes de fleca, confiteria i pastisseria en establiments especialitzats"
,via de Massagué,30,EL JARDI DIETETIC,activitat_econòmica,Comerç al detall d'altres tipus de productes alimentaris en establiments especia,41.5438,2.11056,,,,sabadellempresa.cat,EL CENTRE,1,"via de Massagué, 30 Bxs",Comerç al detall d'altres tipus de productes alimentaris en establiments especialitzats
,Rambla,42,EL MERCADER DE SABADELL,activitat_econòmica,Establiments de begudes,41.5459,2.10482,,,,sabadellempresa.cat,EL CENTRE,1,"Rambla, 42 Bxs",Establiments de begudes
,c. d' Àngel Guimerà,4,EL MERKAT BRAND AND COMUNICACIO SL,activitat_econòmica,Agències de publicitat,41.5456,2.09946,,,,sabadellempresa.cat,EL CENTRE,1,"c. d' Àngel Guimerà, 4 Bxs",Agències de publicitat
,c. de Duran i Sors,3,EL MEU HERBOLARI,activitat_econòmica,"Comerç al detall, amb predomini de productes alimentaris, begudes i tabac en est",41.5404,2.11504,,,,sabadellempresa.cat,EL CENTRE,1,"c. de Duran i Sors, 3 1 Bxs G","Comerç al detall, amb predomini de productes alimentaris, begudes i tabac en establiments no especialitzats"
,Rambla,170,EL NOU IMPERIAL XARCUTERIA VINATERIA,activitat_econòmica,Comerç al detall de carn i productes carnis en establiments especialitzats,41.5485,2.10825,,,,sabadellempresa.cat,EL CENTRE,1,"Rambla, 170A Bxs 16a",Comerç al detall de carn i productes carnis en establiments especialitzats
,c. de Colom,31,EL RACO DEL MERCAT,activitat_econòmica,Establiments de begudes,41.5402,2.1111,,,,sabadellempresa.cat,EL CENTRE,1,"c. de Colom, 31 Bxs",Establiments de begudes
,pl. de l' Àngel,10,EL RACO DELS CANELONS,activitat_econòmica,Elaboració de menjars i plats preparats,41.5467,2.11037,,,,sabadellempresa.cat,EL CENTRE,1,"pl. de l' Àngel, 10 Bxs",Elaboració de menjars i plats preparats
,c. del Metge Mir,23,EL RANCHO,activitat_econòmica,Restaurants i establiments de menjars,41.5452,2.09955,,,,sabadellempresa.cat,COVADONGA,1,"c. del Metge Mir, 23 Bxs",Restaurants i establiments de menjars
,c. de Fèlix Amat,102,ELECTRONICA OLMOS,activitat_econòmica,Reparació d'aparells electrònics d'àudio i vídeo d'ús domèstic,41.5435,2.11114,,,,sabadellempresa.cat,EL CENTRE,1,"c. de Fèlix Amat, 102 Bxs",Reparació d'aparells electrònics d'àudio i vídeo d'ús domèstic
,c. de Duran i Sors,9,ELS CAMPOS 1,activitat_econòmica,Comerç al detall de fruites i hortalisses en establiments especialitzats,41.5428,2.11503,,,,sabadellempresa.cat,EL CENTRE,1,"c. de Duran i Sors, 9B Bxs 1a",Comerç al detall de fruites i hortalisses en establiments especialitzats
,c. de la Indústria,20,ELS CAMPOS 2,activitat_econòmica,Comerç al detall de fruites i hortalisses en establiments especialitzats,41.5452,2.10989,,,,sabadellempresa.cat,EL CENTRE,1,"c. de la Indústria, 20B Bxs 1a",Comerç al detall de fruites i hortalisses en establiments especialitzats
,c. de Josep Renom,137,EMBOTITS ROIG BELLVEHI,activitat_econòmica,Elaboració de productes carnis i de volateria,41.5472,2.10845,,,,sabadellempresa.cat,EL CENTRE,1,"c. de Josep Renom, 137 Bxs",Elaboració de productes carnis i de volateria
,Rambla,62,EMFASI MARKETING DIGITAL,activitat_econòmica,Altres serveis relacionats amb les tecnologies de la informació,41.5443,2.12071,,,,sabadellempresa.cat,EL CENTRE,1,"Rambla, 62 1r 2a",Altres serveis relacionats amb les tecnologies de la informació
,rda. de Ponent,132,EMPATIF,activitat_econòmica,Altres activitats de suport a les empreses ncaa,41.547,2.11193,,,,sabadellempresa.cat,EL CENTRE,1,"rda. de Ponent, 132 1 Bxs 1a",Altres activitats de suport a les empreses ncaa
,c. de Zurbano,3,ENCARNA PERRUQUERIA ESTETICA,activitat_econòmica,Perruqueria i altres tractaments de bellesa,41.5461,2.11726,,,,sabadellempresa.cat,EL CENTRE,1,"c. de Zurbano, 3 Bxs 7a",Perruqueria i altres tractaments de bellesa
,c. de Sant Josep,36,ENDERROCS SL,activitat_econòmica,Demolició d'immobles,41.5487,2.10844,,,,sabadellempresa.cat,EL CENTRE,1,"c. de Sant Josep, 36 Bxs 1a",Demolició d'immobles
,c. de Sallarès i Pla,6,ENDESA,activitat_econòmica,Altres activitats de suport a les empreses ncaa,41.5455,2.10938,,,,sabadellempresa.cat,EL CENTRE,1,"c. de Sallarès i Pla, 6 Bxs",Altres activitats de suport a les empreses ncaa
,c. de l' Escola Industrial,8,EOS JOIERIA,activitat_econòmica,Comerç al detall d'articles de rellotgeria i joieria en establiments especialitz,41.5508,2.10162,,,,sabadellempresa.cat,EL CENTRE,1,"c. de l' Escola Industrial, 8 Bxs B",Comerç al detall d'articles de rellotgeria i joieria en establiments especialitzats
,Rambla,178,EQUIVALENZA,activitat_econòmica,Comerç al detall de productes cosmètics i higiènics en establiments especialitza,41.5495,2.09818,,,,sabadellempresa.cat,EL CENTRE,1,"Rambla, 178 Bxs 1a",Comerç al detall de productes cosmètics i higiènics en establiments especialitzats
,c. de Montserrat,176,ESCAPA,activitat_econòmica,Reparació d'efectes personals i articles d'ús domèstic ncaa,41.5458,2.10876,,,,sabadellempresa.cat,EL CENTRE,1,"c. de Montserrat, 176 Bxs 1a",Reparació d'efectes personals i articles d'ús domèstic ncaa
,c. de Margenat,42,ESCLAT,activitat_econòmica,"Comerç al detall, amb predomini de productes alimentaris, begudes i tabac en est",41.5465,2.10971,,,,sabadellempresa.cat,HOSTAFRANCS,1,"c. de Margenat, 42 Bxs","Comerç al detall, amb predomini de productes alimentaris, begudes i tabac en establiments no especialitzats"
,c. de Joaquín Costa,57,ESCODA,activitat_econòmica,"Fabricació d'escombres, brotxes i raspalls",41.5493,2.10868,,,,sabadellempresa.cat,HOSTAFRANCS,1,"c. de Joaquín Costa, 57 Bxs","Fabricació d'escombres, brotxes i raspalls"
,c. de Joaquín Costa,55,ESCODA,activitat_econòmica,"Fabricació d'escombres, brotxes i raspalls",41.5444,2.10919,,,,sabadellempresa.cat,HOSTAFRANCS,1,"c. de Joaquín Costa, 55 Bxs","Fabricació d'escombres, brotxes i raspalls"
,c. de Joaquín Costa,47,ESCODA,activitat_econòmica,"Fabricació d'escombres, brotxes i raspalls",41.5489,2.10335,,,,sabadellempresa.cat,HOSTAFRANCS,1,"c. de Joaquín Costa, 47 Bxs","Fabricació d'escombres, brotxes i raspalls"
,c. de Garcilaso,112,ESCOL.CORAL ST.JORDI,activitat_econòmica,Educació relacionada amb la cultura,41.5408,2.11196,,,,sabadellempresa.cat,EL CENTRE,1,"c. de Garcilaso, 112 Bxs",Educació relacionada amb la cultura
,c. de Sant Oleguer,120,ESCOLA DE DANSA LA NAU,activitat_econòmica,Educació relacionada amb la cultura,41.5486,2.10908,,,,sabadellempresa.cat,EL CENTRE,1,"c. de Sant Oleguer, 120 Bxs",Educació relacionada amb la cultura
,c. de Sant Oleguer,75,ESCOLA DE MUSICA I CONSERVATORI PROFESSIONAL,activitat_econòmica,Educació relacionada amb la cultura,41.5479,2.11467,,,,sabadellempresa.cat,EL CENTRE,1,"c. de Sant Oleguer, 75 Bxs",Educació relacionada amb la cultura
,pg. de Manresa,19,ESCOLA JOSO CENTRE COMIC,activitat_econòmica,Altres activitats d'educació ncaa,41.5486,2.10819,,,,sabadellempresa.cat,EL CENTRE,1,"pg. de Manresa, 19 1r 1a",Altres activitats d'educació ncaa
,c. de Sant Llorenç,23,ESCUDE ASSESSORS,activitat_econòmica,"Activitats de comptabilitat, tenidoria de llibres, auditoria i assessoria fiscal",41.5462,2.10592,,,,sabadellempresa.cat,EL CENTRE,1,"c. de Sant Llorenç, 23 Bxs","Activitats de comptabilitat, tenidoria de llibres, auditoria i assessoria fiscal"
,c. de la Creueta,7,ESPAI CREATIU,activitat_econòmica,Altres activitats d'impressió i arts gràfiques,41.547,2.09472,,,,sabadellempresa.cat,EL CENTRE,1,"c. de la Creueta, 7 Bxs",Altres activitats d'impressió i arts gràfiques
,Rambla,65,ESPAI LEGAL,activitat_econòmica,Activitats jurídiques,41.5479,2.11058,,,,sabadellempresa.cat,EL CENTRE,1,"Rambla, 65 Ent 1a",Activitats jurídiques
,c. de Joan Maragall,8,ESPAI RECORDS,activitat_econòmica,Comerç al detall d'electrodomèstics en establiments especialitzats,41.5503,2.11933,,,,sabadellempresa.cat,EL CENTRE,1,"c. de Joan Maragall, 8 Bxs",Comerç al detall d'electrodomèstics en establiments especialitzats
,c. de les Planes,35,ESSABEDE COMUNICACIO,activitat_econòmica,Agències de publicitat,41.5459,2.09935,,,,sabadellempresa.cat,EL CENTRE,1,"c. de les Planes, 35 2n 2a",Agències de publicitat
,Rambla,207,ESTAMBRIL TEXTILES INTERNATIONAL SL,activitat_econòmica,Comerç a l'engròs de tèxtils,41.5458,2.10706,,,,sabadellempresa.cat,EL CENTRE,1,"Rambla, 207 1r 2a",Comerç a l'engròs de tèxtils
,Rambla,143,ESTEVE PERMANYER YGLESIAS ECONOMISTA,activitat_econòmica,"Activitats de comptabilitat, tenidoria de llibres, auditoria i assessoria fiscal",41.5465,2.10023,,,,sabadellempresa.cat,EL CENTRE,1,"Rambla, 143 2n 2a","Activitats de comptabilitat, tenidoria de llibres, auditoria i assessoria fiscal"
,c. de l' Advocat Cirera,17,ESTIL PROPI,activitat_econòmica,Perruqueria i altres tractaments de bellesa,41.5478,2.10562,,,,sabadellempresa.cat,EL CENTRE,1,"c. de l' Advocat Cirera, 17 Bxs 1a",Perruqueria i altres tractaments de bellesa
,c. de Jovellanos,66,ESTUDI CREATIU COLLAGE AND SWEET MOON TRAVEL,activitat_econòmica,Activitats de les agències de viatges,41.5441,2.11009,,,,sabadellempresa.cat,EL CENTRE,1,"c. de Jovellanos, 66 Bxs",Activitats de les agències de viatges
,c. de Gràcia,88,ESTUDI ENGINYERIA I ARQUITECTURA PRODIS,activitat_econòmica,Serveis tècnics d'enginyeria i altres activitats relacionades amb l'assessoramen,41.5502,2.10769,,,,sabadellempresa.cat,EL CENTRE,1,"c. de Gràcia, 88 Bxs",Serveis tècnics d'enginyeria i altres activitats relacionades amb l'assessorament tècnic
,rda. de Zamenhof,139,ESTUDI MOBLE VILALTA,activitat_econòmica,Comerç al detall d'electrodomèstics en establiments especialitzats,41.5403,2.11083,,,,sabadellempresa.cat,EL CENTRE,1,"rda. de Zamenhof, 139 Bxs 2a",Comerç al detall d'electrodomèstics en establiments especialitzats
,c. de Riego,61,ESTUDIO JURIDICO FISCAL S A,activitat_econòmica,Activitats jurídiques,41.545,2.10965,,,,sabadellempresa.cat,EL CENTRE,1,"c. de Riego, 61 Bxs 1a",Activitats jurídiques
,c. de l' Advocat Cirera,11,EUGENIA VILALTA,activitat_econòmica,Perruqueria i altres tractaments de bellesa,41.5448,2.10929,,,,sabadellempresa.cat,EL CENTRE,1,"c. de l' Advocat Cirera, 11 Bxs C",Perruqueria i altres tractaments de bellesa
,pl. de Sant Jaume,3,EUSEBELLA SL,activitat_econòmica,Altres activitats de suport a les empreses ncaa,41.5401,2.11135,,,,sabadellempresa.cat,EL CENTRE,1,"pl. de Sant Jaume, 3 5è 2a",Altres activitats de suport a les empreses ncaa
,pg. de Manresa,19,EXITPROJECTES,activitat_econòmica,Serveis tècnics d'enginyeria i altres activitats relacionades amb l'assessoramen,41.5415,2.11137,,,,sabadellempresa.cat,EL CENTRE,1,"pg. de Manresa, 19 4t 1a",Serveis tècnics d'enginyeria i altres activitats relacionades amb l'assessorament tècnic
,pg. de Gaudí,35,EXOTIC SOULS STUDIO,activitat_econòmica,Educació relacionada amb l'esport i les activitats recreatives,41.5467,2.10496,,,,sabadellempresa.cat,COVADONGA,1,"pg. de Gaudí, 35 Bxs 1a",Educació relacionada amb l'esport i les activitats recreatives
,c. d'en Font,26,EXPENDEDURIA 1,activitat_econòmica,Comerç al detall de productes de tabac en establiments especialitzats,41.5493,2.10868,,,,sabadellempresa.cat,EL CENTRE,1,"c. d'en Font, 26 Bxs",Comerç al detall de productes de tabac en establiments especialitzats
,c. de les Tres Creus,166,EXPENDEDURIA 12,activitat_econòmica,Comerç al detall de productes de tabac en establiments especialitzats,41.5483,2.11739,,,,sabadellempresa.cat,EL CENTRE,1,"c. de les Tres Creus, 166 Bxs 2a",Comerç al detall de productes de tabac en establiments especialitzats
,ctra. de Terrassa,108,EXPENDEDURIA 20,activitat_econòmica,Comerç al detall de productes de tabac en establiments especialitzats,41.542,2.1152,,,,sabadellempresa.cat,HOSTAFRANCS,1,"ctra. de Terrassa, 108 Bxs",Comerç al detall de productes de tabac en establiments especialitzats
,pg. de la Plaça Major,25,EXPENDEDURIA 7,activitat_econòmica,Comerç al detall de productes de tabac en establiments especialitzats,41.5434,2.10317,,,,sabadellempresa.cat,EL CENTRE,1,"pg. de la Plaça Major, 25 Bxs",Comerç al detall de productes de tabac en establiments especialitzats
,c. de Calderón,73,EXPRESS SUPERMERCAT,activitat_econòmica,"Comerç al detall, amb predomini de productes alimentaris, begudes i tabac en est",41.54,2.11098,,,,sabadellempresa.cat,EL CENTRE,1,"c. de Calderón, 73 Bxs","Comerç al detall, amb predomini de productes alimentaris, begudes i tabac en establiments no especialitzats"
,Rambla,123,FACILMOBEL,activitat_econòmica,"Comerç al detall de mobles, aparells d'il·luminació i d'altres articles d'ús dom",41.5471,2.11152,,,,sabadellempresa.cat,EL CENTRE,1,"Rambla, 123 Bxs","Comerç al detall de mobles, aparells d'il·luminació i d'altres articles d'ús domèstic en establiments especialitzats"
,c. del Doctor Puig,44,FALGUERAS SI,activitat_econòmica,Promoció immobiliària,41.5494,2.09936,,,,sabadellempresa.cat,EL CENTRE,1,"c. del Doctor Puig, 44A Bxs 1a",Promoció immobiliària
,rda. de Ponent,183,FANCY DISSENY,activitat_econòmica,Comerç al detall de jocs i joguines en establiments especialitzats,41.5446,2.10988,,,,sabadellempresa.cat,HOSTAFRANCS,1,"rda. de Ponent, 183 Bxs 2a",Comerç al detall de jocs i joguines en establiments especialitzats
,c. de Sant Antoni Maria Claret,21,FARMACIA ARGELAGUET,activitat_econòmica,Comerç al detall de productes farmacèutics en establiments especialitzats,41.5479,2.0991,,,,sabadellempresa.cat,EL CENTRE,1,"c. de Sant Antoni Maria Claret, 21 Bxs 2a",Comerç al detall de productes farmacèutics en establiments especialitzats
,c. del Carme,10,FARMACIA BAGAN,activitat_econòmica,Comerç al detall de productes farmacèutics en establiments especialitzats,41.5409,2.11134,,,,sabadellempresa.cat,EL CENTRE,1,"c. del Carme, 10 Bxs",Comerç al detall de productes farmacèutics en establiments especialitzats
,via de Massagué,40,FARMACIA BLANCHART,activitat_econòmica,Comerç al detall de productes farmacèutics en establiments especialitzats,41.5482,2.11137,,,,sabadellempresa.cat,EL CENTRE,1,"via de Massagué, 40 Bxs",Comerç al detall de productes farmacèutics en establiments especialitzats
,rda. de Ponent,17,FARMACIA COROMINAS,activitat_econòmica,Comerç al detall de productes farmacèutics en establiments especialitzats,41.5458,2.11191,,,,sabadellempresa.cat,HOSTAFRANCS,1,"rda. de Ponent, 17 Bxs 6a",Comerç al detall de productes farmacèutics en establiments especialitzats
,c. de Colom,5,FARMACIA DEL MERCAT,activitat_econòmica,Comerç al detall de productes farmacèutics en establiments especialitzats,41.545,2.11995,,,,sabadellempresa.cat,EL CENTRE,1,"c. de Colom, 5 Bxs",Comerç al detall de productes farmacèutics en establiments especialitzats
,pg. de la Plaça Major,29,FARMACIA GARRIGA,activitat_econòmica,Comerç al detall de productes farmacèutics en establiments especialitzats,41.5478,2.1065,,,,sabadellempresa.cat,EL CENTRE,1,"pg. de la Plaça Major, 29 Bxs",Comerç al detall de productes farmacèutics en establiments especialitzats
,c. de Sallarès i Pla,140,FARMACIA M. GARRIGA,activitat_econòmica,Comerç al detall de productes farmacèutics en establiments especialitzats,41.5409,2.11164,,,,sabadellempresa.cat,EL CENTRE,1,"c. de Sallarès i Pla, 140 Bxs",Comerç al detall de productes farmacèutics en establiments especialitzats
,pl. de l' Àngel,12,FARMACIA MARTA GILI,activitat_econòmica,Comerç al detall de productes farmacèutics en establiments especialitzats,41.5423,2.10516,,,,sabadellempresa.cat,EL CENTRE,1,"pl. de l' Àngel, 12 Bxs",Comerç al detall de productes farmacèutics en establiments especialitzats
,Rambla,167,FARMACIA MORALELS - COSMETICA,activitat_econòmica,Comerç al detall de productes cosmètics i higiènics en establiments especialitza,41.5458,2.09784,,,,sabadellempresa.cat,EL CENTRE,1,"Rambla, 167 Bxs 1a",Comerç al detall de productes cosmètics i higiènics en establiments especialitzats
,Rambla,167,FARMACIA MORALES,activitat_econòmica,Comerç al detall de productes farmacèutics en establiments especialitzats,41.5468,2.09645,,,,sabadellempresa.cat,EL CENTRE,1,"Rambla, 167 Bxs 1a",Comerç al detall de productes farmacèutics en establiments especialitzats
,rda. de Ponent,173,FARMACIA ORTOPEDIA LLOP,activitat_econòmica,Comerç al detall de productes farmacèutics en establiments especialitzats,41.5467,2.09647,,,,sabadellempresa.cat,HOSTAFRANCS,1,"rda. de Ponent, 173 Bxs A",Comerç al detall de productes farmacèutics en establiments especialitzats
,rda. de Zamenhof,145,FARMACIA PAREJA,activitat_econòmica,Comerç al detall de productes farmacèutics en establiments especialitzats,41.5466,2.09655,,,,sabadellempresa.cat,EL CENTRE,1,"rda. de Zamenhof, 145 Bxs 1a",Comerç al detall de productes farmacèutics en establiments especialitzats
,Rambla,26,FARMACIA SEGALAS,activitat_econòmica,Comerç al detall de productes farmacèutics en establiments especialitzats,41.5495,2.1023,,,,sabadellempresa.cat,EL CENTRE,1,"Rambla, 26 Bxs",Comerç al detall de productes farmacèutics en establiments especialitzats
,c. de Covadonga,310,FARMACIA TRES CREUS,activitat_econòmica,Comerç al detall de productes farmacèutics en establiments especialitzats,41.5446,2.1132,,,,sabadellempresa.cat,COVADONGA,1,"c. de Covadonga, 310 Bxs 2a",Comerç al detall de productes farmacèutics en establiments especialitzats
,Rambla,229,FARMACIA VINYES COSTA,activitat_econòmica,Comerç al detall de productes farmacèutics en establiments especialitzats,41.5402,2.11318,,,,sabadellempresa.cat,EL CENTRE,1,"Rambla, 229 1 Bxs 1a",Comerç al detall de productes farmacèutics en establiments especialitzats
,c. de Lacy,62,FELIU LLOBET,activitat_econòmica,Serveis tècnics d'arquitectura,41.542,2.11247,,,,sabadellempresa.cat,EL CENTRE,1,"c. de Lacy, 62 A 1r 2a",Serveis tècnics d'arquitectura
,c. de Sant Quirze,5,FEMINA,activitat_econòmica,Comerç al detall de peces de vestir en establiments especialitzats,41.5486,2.10819,,,,sabadellempresa.cat,EL CENTRE,1,"c. de Sant Quirze, 5B Bxs 2a",Comerç al detall de peces de vestir en establiments especialitzats
,c. del Sol,217,FENOY LEGAL ADVOCATS,activitat_econòmica,Activitats jurídiques,41.5478,2.11188,,,,sabadellempresa.cat,EL CENTRE,1,"c. del Sol, 217 Bxs 1a",Activitats jurídiques
,pl. de l' Àngel,10,FERRAN BONAS,activitat_econòmica,"Activitats de comptabilitat, tenidoria de llibres, auditoria i assessoria fiscal",41.5487,2.11001,,,,sabadellempresa.cat,EL CENTRE,1,"pl. de l' Àngel, 10 1r 2a","Activitats de comptabilitat, tenidoria de llibres, auditoria i assessoria fiscal"
,c. de l' Estrella,26,FERRANDO,activitat_econòmica,Perruqueria i altres tractaments de bellesa,41.5445,2.11023,,,,sabadellempresa.cat,EL CENTRE,1,"c. de l' Estrella, 26 Bxs",Perruqueria i altres tractaments de bellesa
,Rambla,5,FERRER ADVOCATS,activitat_econòmica,Activitats jurídiques,41.546,2.1067,,,,sabadellempresa.cat,EL CENTRE,1,"Rambla, 5 4t 1a",Activitats jurídiques
,c. de Narcís Giralt,15,FERRER GESTIO PROFESSIONAL,activitat_econòmica,"Activitats de comptabilitat, tenidoria de llibres, auditoria i assessoria fiscal",41.5436,2.1081,,,,sabadellempresa.cat,EL CENTRE,1,"c. de Narcís Giralt, 15 Ent 1a","Activitats de comptabilitat, tenidoria de llibres, auditoria i assessoria fiscal"
,c. del Marquès de Comillas,139,FERRETERIA CENTRE,activitat_econòmica,"Comerç al detall de ferreteria, pintures i vidre en establiments especialitzats",41.5408,2.11196,,,,sabadellempresa.cat,EL CENTRE,1,"c. del Marquès de Comillas, 139A Bxs","Comerç al detall de ferreteria, pintures i vidre en establiments especialitzats"
,c. de Colom,36,FERRETERIA FEU,activitat_econòmica,"Comerç al detall de ferreteria, pintures i vidre en establiments especialitzats",41.5408,2.11196,,,,sabadellempresa.cat,EL CENTRE,1,"c. de Colom, 36 Bxs","Comerç al detall de ferreteria, pintures i vidre en establiments especialitzats"
,c. de la Indústria,23,FERRETERIA PAVON,activitat_econòmica,"Comerç al detall de ferreteria, pintures i vidre en establiments especialitzats",41.5422,2.11127,,,,sabadellempresa.cat,EL CENTRE,1,"c. de la Indústria, 23B Bxs","Comerç al detall de ferreteria, pintures i vidre en establiments especialitzats"
,c. del Marquès de Comillas,17,FIAC,activitat_econòmica,Altres activitats d'educació ncaa,41.5458,2.10744,,,,sabadellempresa.cat,EL CENTRE,1,"c. del Marquès de Comillas, 17 Bxs Esq",Altres activitats d'educació ncaa
,c. de Marià Fortuny,24,FIAC,activitat_econòmica,Altres activitats d'educació ncaa,41.5497,2.10459,,,,sabadellempresa.cat,EL CENTRE,1,"c. de Marià Fortuny, 24 Bxs",Altres activitats d'educació ncaa
,c. de Latorre,36,FIATC ASSEGURANCES,activitat_econòmica,Activitats d'agents i corredors d'assegurances,41.5494,2.10569,,,,sabadellempresa.cat,EL CENTRE,1,"c. de Latorre, 36 Bxs 3a",Activitats d'agents i corredors d'assegurances
,c. de Sant Quirze,20,FICHET POINT FORT,activitat_econòmica,Altres tipus de comerç al detall en establiments no especialitzats,41.5506,2.10068,,,,sabadellempresa.cat,EL CENTRE,1,"c. de Sant Quirze, 20 Bxs",Altres tipus de comerç al detall en establiments no especialitzats
,c. de la Palanca,4,FIGUEROLA,activitat_econòmica,Altres activitats d'impressió i arts gràfiques,41.5438,2.11303,,,,sabadellempresa.cat,EL CENTRE,1,"c. de la Palanca, 4 Bxs 1a",Altres activitats d'impressió i arts gràfiques
,pg. de la Plaça Major,72,FIGUEROLA,activitat_econòmica,Comerç al detall de periòdics i articles de papereria en establiments especialit,41.5459,2.10764,,,,sabadellempresa.cat,EL CENTRE,1,"pg. de la Plaça Major, 72 Bxs 1a",Comerç al detall de periòdics i articles de papereria en establiments especialitzats
,pg. de la Plaça Major,68,FIGUEROLA,activitat_econòmica,Comerç al detall de periòdics i articles de papereria en establiments especialit,41.5429,2.10547,,,,sabadellempresa.cat,EL CENTRE,1,"pg. de la Plaça Major, 68 Bxs",Comerç al detall de periòdics i articles de papereria en establiments especialitzats
,c. de la Palanca,7,FIGUEROLA CENTRE D'IMPRESSIO,activitat_econòmica,Comerç al detall de periòdics i articles de papereria en establiments especialit,41.5466,2.10483,,,,sabadellempresa.cat,EL CENTRE,1,"c. de la Palanca, 7 Bxs",Comerç al detall de periòdics i articles de papereria en establiments especialitzats
,c. de Jesús,7,FILATELIA - NUMISMATICA,activitat_econòmica,Comerç al detall d'articles de segona mà en establiments especialitzats,41.5486,2.10819,,,,sabadellempresa.cat,EL CENTRE,1,"c. de Jesús, 7 Bxs",Comerç al detall d'articles de segona mà en establiments especialitzats
,c. de Calassanç Duran,194,FILIGRANA PRODUCCIONS,activitat_econòmica,Activitats de producció cinematogràfica i de vídeo,41.5406,2.12042,,,,sabadellempresa.cat,COVADONGA,1,"c. de Calassanç Duran, 194 Bxs 2a",Activitats de producció cinematogràfica i de vídeo
,c. de Sant Joan,39,FINCAMPS,activitat_econòmica,Agents de la propietat immobiliària,41.5466,2.10563,,,,sabadellempresa.cat,EL CENTRE,1,"c. de Sant Joan, 39 Bxs",Agents de la propietat immobiliària
,c. d' Àngel Guimerà,2,FINGRACEN,activitat_econòmica,Agents de la propietat immobiliària,41.5461,2.11484,,,,sabadellempresa.cat,EL CENTRE,1,"c. d' Àngel Guimerà, 2 3r 1a",Agents de la propietat immobiliària
,ctra. de Barcelona,37,FINQUES L'AVET,activitat_econòmica,Agents de la propietat immobiliària,41.5447,2.09946,,,,sabadellempresa.cat,EL CENTRE,1,"ctra. de Barcelona, 37 Bxs A",Agents de la propietat immobiliària
,c. d' Alguersuari i Pascual,169,FIRA DE SABADELL,activitat_econòmica,Organització de convencions i fires de mostres,41.5474,2.1085,,,,sabadellempresa.cat,COVADONGA,1,"c. d' Alguersuari i Pascual, 169 Bxs",Organització de convencions i fires de mostres
,c. del Pare Sallarès,39,FITBOL SYSTEM SL,activitat_econòmica,Comerç a l'engròs de metalls i minerals metàl·lics,41.5471,2.10322,,,,sabadellempresa.cat,EL CENTRE,1,"c. del Pare Sallarès, 39 Bxs",Comerç a l'engròs de metalls i minerals metàl·lics
,c. de Sant Cugat,117,FLECA ROCA,activitat_econòmica,"Comerç al detall de pa i productes de fleca, confiteria i pastisseria en establi",41.5496,2.10839,,,,sabadellempresa.cat,EL CENTRE,1,"c. de Sant Cugat, 117 Bxs","Comerç al detall de pa i productes de fleca, confiteria i pastisseria en establiments especialitzats"
,via de Massagué,60,FLECA VALLS,activitat_econòmica,"Comerç al detall de pa i productes de fleca, confiteria i pastisseria en establi",41.5426,2.11107,,,,sabadellempresa.cat,EL CENTRE,1,"via de Massagué, 60 Bxs","Comerç al detall de pa i productes de fleca, confiteria i pastisseria en establiments especialitzats"
,c. de Calderón,44,FLEXI PLAN,activitat_econòmica,Activitats de les empreses de treball temporal,41.5497,2.1091,,,,sabadellempresa.cat,EL CENTRE,1,"c. de Calderón, 44 Bxs 11a",Activitats de les empreses de treball temporal
,pl. del Vapor Gorina,9,FMJ INGENIEROS,activitat_econòmica,Serveis tècnics d'arquitectura,41.5493,2.09832,,,,sabadellempresa.cat,EL CENTRE,1,"pl. del Vapor Gorina, 9 Bxs 1aB",Serveis tècnics d'arquitectura
,rda. de Zamenhof,119,FOCUS BELLA,activitat_econòmica,Perruqueria i altres tractaments de bellesa,41.5467,2.10976,,,,sabadellempresa.cat,EL CENTRE,1,"rda. de Zamenhof, 119 Bxs A",Perruqueria i altres tractaments de bellesa
,c. del Ripoll,29,FORMAN,activitat_econòmica,"Fabricació d'altres productes de fusta; fabricació de productes de suro, cistell",41.5487,2.11134,,,,sabadellempresa.cat,COVADONGA,1,"c. del Ripoll, 29 Bxs","Fabricació d'altres productes de fusta; fabricació de productes de suro, cistelleria i esparteria"
,c. de Migdia,26,FORMES,activitat_econòmica,Perruqueria i altres tractaments de bellesa,41.5509,2.10726,,,,sabadellempresa.cat,EL CENTRE,1,"c. de Migdia, 26 Bxs",Perruqueria i altres tractaments de bellesa
,c. de Valentí Almirall,45,FORMIGONS MONTCAU,activitat_econòmica,Fabricació de formigó fresc,41.5449,2.09965,,,,sabadellempresa.cat,HOSTAFRANCS,1,"c. de Valentí Almirall, 45 Bxs",Fabricació de formigó fresc
,pl. de Sant Roc,5,FORN CARRERAS,activitat_econòmica,"Comerç al detall de pa i productes de fleca, confiteria i pastisseria en establi",41.547,2.10546,,,,sabadellempresa.cat,EL CENTRE,1,"pl. de Sant Roc, 5 Bxs","Comerç al detall de pa i productes de fleca, confiteria i pastisseria en establiments especialitzats"
,pg. de la Plaça Major,50,FORN CENTENARI,activitat_econòmica,"Comerç al detall de pa i productes de fleca, confiteria i pastisseria en establi",41.5407,2.11887,,,,sabadellempresa.cat,EL CENTRE,1,"pg. de la Plaça Major, 50 Bxs Esq","Comerç al detall de pa i productes de fleca, confiteria i pastisseria en establiments especialitzats"
,c. de Sallarès i Pla,84,FORN CENTENARI,activitat_econòmica,"Comerç al detall de pa i productes de fleca, confiteria i pastisseria en establi",41.5475,2.10842,,,,sabadellempresa.cat,EL CENTRE,1,"c. de Sallarès i Pla, 84 Bxs","Comerç al detall de pa i productes de fleca, confiteria i pastisseria en establiments especialitzats"
,c. de Riego,60,FORN CENTENARI,activitat_econòmica,"Comerç al detall de pa i productes de fleca, confiteria i pastisseria en establi",41.5424,2.11397,,,,sabadellempresa.cat,EL CENTRE,1,"c. de Riego, 60 Bxs","Comerç al detall de pa i productes de fleca, confiteria i pastisseria en establiments especialitzats"
,c. de Calassanç Duran,217,FORN DE PA - PASTISSERIA XALOC,activitat_econòmica,"Comerç al detall de pa i productes de fleca, confiteria i pastisseria en establi",41.5493,2.10839,,,,sabadellempresa.cat,COVADONGA,1,"c. de Calassanç Duran, 217 Bxs 1a","Comerç al detall de pa i productes de fleca, confiteria i pastisseria en establiments especialitzats"
,c. de Corominas,1,FORN DEL MERCAT,activitat_econòmica,"Comerç al detall de pa i productes de fleca, confiteria i pastisseria en establi",41.5415,2.1116,,,,sabadellempresa.cat,EL CENTRE,1,"c. de Corominas, 1 Bxs","Comerç al detall de pa i productes de fleca, confiteria i pastisseria en establiments especialitzats"
,c. d' Arimon,14,FORN EL RACO DEL POTI POTI,activitat_econòmica,"Comerç al detall de pa i productes de fleca, confiteria i pastisseria en establi",41.5415,2.1116,,,,sabadellempresa.cat,EL CENTRE,1,"c. d' Arimon, 14 Bxs 2a","Comerç al detall de pa i productes de fleca, confiteria i pastisseria en establiments especialitzats"
,c. de Bonavista,94,FORN FREIXENET,activitat_econòmica,"Comerç al detall de pa i productes de fleca, confiteria i pastisseria en establi",41.5486,2.09855,,,,sabadellempresa.cat,COVADONGA,1,"c. de Bonavista, 94 Bxs","Comerç al detall de pa i productes de fleca, confiteria i pastisseria en establiments especialitzats"
,c. de Sant Antoni,35,FORRELLAT,activitat_econòmica,Comerç al detall d'articles de rellotgeria i joieria en establiments especialitz,41.5504,2.10022,,,,sabadellempresa.cat,EL CENTRE,1,"c. de Sant Antoni, 35 Bxs",Comerç al detall d'articles de rellotgeria i joieria en establiments especialitzats
,pg. de Manresa,12,FRANKFURT,activitat_econòmica,Establiments de begudes,41.5454,2.10945,,,,sabadellempresa.cat,EL CENTRE,1,"pg. de Manresa, 12 Bxs 1a",Establiments de begudes
,c. de les Planes,35,FRANSALA TEXTILE ALLIANCE SL,activitat_econòmica,Intermediaris del comerç de productes diversos,41.5454,2.10945,,,,sabadellempresa.cat,EL CENTRE,1,"c. de les Planes, 35 1r 1a",Intermediaris del comerç de productes diversos
,via de Massagué,63,FRUITES I VERDURES,activitat_econòmica,Comerç al detall de fruites i hortalisses en establiments especialitzats,41.5465,2.11716,,,,sabadellempresa.cat,EL CENTRE,1,"via de Massagué, 63 Bxs",Comerç al detall de fruites i hortalisses en establiments especialitzats
,c. de les Tres Creus,150,FRUITES I VERDURES,activitat_econòmica,Comerç al detall de fruites i hortalisses en establiments especialitzats,41.5402,2.11222,,,,sabadellempresa.cat,EL CENTRE,1,"c. de les Tres Creus, 150 Bxs",Comerç al detall de fruites i hortalisses en establiments especialitzats
,pl. del Mercat,1,FRUITES I VERDURES ROSA P. 126-128,activitat_econòmica,Comerç al detall de fruites i hortalisses en establiments especialitzats,41.5444,2.11248,,,,sabadellempresa.cat,EL CENTRE,1,"pl. del Mercat, 1 Bxs",Comerç al detall de fruites i hortalisses en establiments especialitzats
,pl. del Mercat,1,FRUITES JUST P. 244-248,activitat_econòmica,Comerç al detall de fruites i hortalisses en establiments especialitzats,41.5466,2.10757,,,,sabadellempresa.cat,EL CENTRE,1,"pl. del Mercat, 1 Bxs",Comerç al detall de fruites i hortalisses en establiments especialitzats
,c. del Jardí,49,FUN ENGLISH,activitat_econòmica,Altres activitats d'educació ncaa,41.5394,2.1112,,,,sabadellempresa.cat,EL CENTRE,1,"c. del Jardí, 49 Bxs",Altres activitats d'educació ncaa
,c. de Duran i Sors,2,FUNDACIO APIP-ACAM,activitat_econòmica,Altres activitats d'educació ncaa,41.5493,2.10868,,,,sabadellempresa.cat,EL CENTRE,1,"c. de Duran i Sors, 2 1 Bxs 1a",Altres activitats d'educació ncaa
